{"type":"FeatureCollection","features":[
{"type":"Feature","properties":{"POINTNAME":"玉山","LEVEL":"HM","COUNTYNAME":"南投縣、高雄市、嘉義縣","HEIGHT":"3952","PARK":"玉山國家公園","MGROUP":"五嶽-1"},"geometry":{"type":"Point","coordinates":[120.95727,23.47000]}},
{"type":"Feature","properties":{"POINTNAME":"雪山","LEVEL":"HM","COUNTYNAME":"苗栗縣、臺中市","HEIGHT":"3886","PARK":"雪霸國家公園","MGROUP":"五嶽-2"},"geometry":{"type":"Point","coordinates":[121.23175,24.38340]}},
{"type":"Feature","properties":{"POINTNAME":"玉山東峰","LEVEL":"HM","COUNTYNAME":"南投縣、高雄市","HEIGHT":"3869","PARK":"玉山國家公園","MGROUP":"十峻-1"},"geometry":{"type":"Point","coordinates":[120.96567,23.47078]}},
{"type":"Feature","properties":{"POINTNAME":"玉山北峰","LEVEL":"HM","COUNTYNAME":"南投縣","HEIGHT":"3858","PARK":"玉山國家公園","MGROUP":"八秀-1"},"geometry":{"type":"Point","coordinates":[120.95967,23.48745]}},
{"type":"Feature","properties":{"POINTNAME":"玉山南峰","LEVEL":"HM","COUNTYNAME":"高雄市","HEIGHT":"3844","PARK":"玉山國家公園","MGROUP":"十峻-2"},"geometry":{"type":"Point","coordinates":[120.95878,23.44658]}},
{"type":"Feature","properties":{"POINTNAME":"秀姑巒山","LEVEL":"HM","COUNTYNAME":"花蓮縣、南投縣","HEIGHT":"3805","PARK":"玉山國家公園","MGROUP":"五嶽-3"},"geometry":{"type":"Point","coordinates":[121.05744,23.49679]}},
{"type":"Feature","properties":{"POINTNAME":"馬博拉斯山","LEVEL":"HM","COUNTYNAME":"花蓮縣、南投縣","HEIGHT":"3785","PARK":"玉山國家公園","MGROUP":"十峻-3"},"geometry":{"type":"Point","coordinates":[121.06724,23.52034]}},
{"type":"Feature","properties":{"POINTNAME":"南湖大山","LEVEL":"HM","COUNTYNAME":"臺中市","HEIGHT":"3742","PARK":"太魯閣國家公園","MGROUP":"五嶽-4"},"geometry":{"type":"Point","coordinates":[121.43936,24.36181]}},
{"type":"Feature","properties":{"POINTNAME":"東小南山","LEVEL":"HM","COUNTYNAME":"高雄市","HEIGHT":"3709","PARK":"玉山國家公園","MGROUP":"九平-1"},"geometry":{"type":"Point","coordinates":[120.96341,23.43904]}},
{"type":"Feature","properties":{"POINTNAME":"中央尖山","LEVEL":"HM","COUNTYNAME":"臺中市、花蓮縣","HEIGHT":"3705","PARK":"太魯閣國家公園","MGROUP":"三尖-1"},"geometry":{"type":"Point","coordinates":[121.41620,24.31023]}},
{"type":"Feature","properties":{"POINTNAME":"雪山北峰","LEVEL":"HM","COUNTYNAME":"苗栗縣、臺中市","HEIGHT":"3703","PARK":"雪霸國家公園","MGROUP":"十潤-2"},"geometry":{"type":"Point","coordinates":[121.24040,24.41472]}},
{"type":"Feature","properties":{"POINTNAME":"關山","LEVEL":"HM","COUNTYNAME":"台東縣、高雄市","HEIGHT":"3668","PARK":"玉山國家公園","MGROUP":"十峻-4"},"geometry":{"type":"Point","coordinates":[120.91172,23.22809]}},
{"type":"Feature","properties":{"POINTNAME":"大水窟山","LEVEL":"HM","COUNTYNAME":"花蓮縣、南投縣","HEIGHT":"3642","PARK":"玉山國家公園","MGROUP":"十潤-1"},"geometry":{"type":"Point","coordinates":[121.45066,24.36589]}},
{"type":"Feature","properties":{"POINTNAME":"南湖大山東峰","LEVEL":"HM","COUNTYNAME":"臺中市、花蓮縣、宜蘭縣","HEIGHT":"3632","PARK":"太魯閣國家公園","MGROUP":"十巖-1"},"geometry":{"type":"Point","coordinates":[121.03862,23.47385]}},
{"type":"Feature","properties":{"POINTNAME":"東郡大山","LEVEL":"HM","COUNTYNAME":"南投縣","HEIGHT":"3619","PARK":"","MGROUP":"十崇-1"},"geometry":{"type":"Point","coordinates":[121.09208,23.62674]}},
{"type":"Feature","properties":{"POINTNAME":"奇萊北峰","LEVEL":"HM","COUNTYNAME":"花蓮縣","HEIGHT":"3607","PARK":"太魯閣國家公園","MGROUP":"十峻-5"},"geometry":{"type":"Point","coordinates":[121.33454,24.11834]}},
{"type":"Feature","properties":{"POINTNAME":"向陽山","LEVEL":"HM","COUNTYNAME":"高雄市、台東縣","HEIGHT":"3603","PARK":"玉山國家公園","MGROUP":"八秀-2"},"geometry":{"type":"Point","coordinates":[120.99242,23.28429]}},
{"type":"Feature","properties":{"POINTNAME":"大劍山","LEVEL":"HM","COUNTYNAME":"臺中市","HEIGHT":"3594","PARK":"雪霸國家公園","MGROUP":"十峻-6"},"geometry":{"type":"Point","coordinates":[121.20049,24.34094]}},
{"type":"Feature","properties":{"POINTNAME":"雲峰","LEVEL":"HM","COUNTYNAME":"高雄市","HEIGHT":"3564","PARK":"玉山國家公園","MGROUP":"九峨-1"},"geometry":{"type":"Point","coordinates":[120.97576,23.35374]}},
{"type":"Feature","properties":{"POINTNAME":"奇萊主山","LEVEL":"HM","COUNTYNAME":"花蓮縣、南投縣","HEIGHT":"3560","PARK":"太魯閣國家公園","MGROUP":"九峨-2"},"geometry":{"type":"Point","coordinates":[121.32323,24.08600]}},
{"type":"Feature","properties":{"POINTNAME":"馬利加南山","LEVEL":"HM","COUNTYNAME":"南投縣、花蓮縣","HEIGHT":"3546","PARK":"玉山國家公園","MGROUP":"十巖-2"},"geometry":{"type":"Point","coordinates":[121.11717,23.52159]}},
{"type":"Feature","properties":{"POINTNAME":"南湖北山","LEVEL":"HM","COUNTYNAME":"宜蘭縣、臺中市","HEIGHT":"3536","PARK":"太魯閣國家公園","MGROUP":"十崇-2"},"geometry":{"type":"Point","coordinates":[121.43717,24.38367]}},
{"type":"Feature","properties":{"POINTNAME":"大雪山","LEVEL":"HM","COUNTYNAME":"苗栗縣、臺中市","HEIGHT":"3530","PARK":"雪霸國家公園","MGROUP":"十崇-3"},"geometry":{"type":"Point","coordinates":[121.12118,24.33075]}},
{"type":"Feature","properties":{"POINTNAME":"品田山","LEVEL":"HM","COUNTYNAME":"新竹縣、臺中市","HEIGHT":"3524","PARK":"雪霸國家公園","MGROUP":"十峻-7"},"geometry":{"type":"Point","coordinates":[121.26682,24.42821]}},
{"type":"Feature","properties":{"POINTNAME":"玉山西峰","LEVEL":"HM","COUNTYNAME":"嘉義縣、南投縣","HEIGHT":"3518","PARK":"玉山國家公園","MGROUP":"十翠-4"},"geometry":{"type":"Point","coordinates":[120.93421,23.47243]}},
{"type":"Feature","properties":{"POINTNAME":"頭鷹山","LEVEL":"HM","COUNTYNAME":"臺中市、苗栗縣","HEIGHT":"3510","PARK":"雪霸國家公園","MGROUP":"九峨-3"},"geometry":{"type":"Point","coordinates":[121.14072,24.35961]}},
{"type":"Feature","properties":{"POINTNAME":"三叉山","LEVEL":"HM","COUNTYNAME":"花蓮縣、台東縣、高雄市","HEIGHT":"3496","PARK":"玉山國家公園","MGROUP":"十崇-3"},"geometry":{"type":"Point","coordinates":[121.02867,23.29718]}},
{"type":"Feature","properties":{"POINTNAME":"大霸尖山","LEVEL":"HM","COUNTYNAME":"新竹縣、苗栗縣","HEIGHT":"3492","PARK":"雪霸國家公園","MGROUP":"三尖-2"},"geometry":{"type":"Point","coordinates":[121.25803,24.45774]}},
{"type":"Feature","properties":{"POINTNAME":"南湖大山南峰","LEVEL":"HM","COUNTYNAME":"臺中市、花蓮縣","HEIGHT":"3475","PARK":"太魯閣國家公園","MGROUP":"十巖-5"},"geometry":{"type":"Point","coordinates":[121.43458,24.34778]}},
{"type":"Feature","properties":{"POINTNAME":"東巒大山","LEVEL":"HM","COUNTYNAME":"南投縣","HEIGHT":"3468","PARK":"","MGROUP":"八秀-3"},"geometry":{"type":"Point","coordinates":[121.08156,23.64867]}},
{"type":"Feature","properties":{"POINTNAME":"無明山","LEVEL":"HM","COUNTYNAME":"臺中市、花蓮縣","HEIGHT":"3451","PARK":"太魯閣國家公園","MGROUP":"十峻-8"},"geometry":{"type":"Point","coordinates":[121.38466,24.25556]}},
{"type":"Feature","properties":{"POINTNAME":"巴巴山","LEVEL":"HM","COUNTYNAME":"臺中市、花蓮縣","HEIGHT":"3449","PARK":"太魯閣國家公園","MGROUP":"八小巒-1"},"geometry":{"type":"Point","coordinates":[121.43782,24.34241]}},
{"type":"Feature","properties":{"POINTNAME":"馬西山","LEVEL":"HM","COUNTYNAME":"花蓮縣","HEIGHT":"3443","PARK":"玉山國家公園","MGROUP":"十崇-5"},"geometry":{"type":"Point","coordinates":[121.17397,23.48376]}},
{"type":"Feature","properties":{"POINTNAME":"北合歡山","LEVEL":"HM","COUNTYNAME":"南投縣、花蓮縣","HEIGHT":"3422","PARK":"太魯閣國家公園","MGROUP":"十崇-6"},"geometry":{"type":"Point","coordinates":[121.28159,24.18150]}},
{"type":"Feature","properties":{"POINTNAME":"合歡山東峰","LEVEL":"HM","COUNTYNAME":"南投縣、花蓮縣","HEIGHT":"3421","PARK":"太魯閣國家公園","MGROUP":"九峨-4"},"geometry":{"type":"Point","coordinates":[121.28103,24.13567]}},
{"type":"Feature","properties":{"POINTNAME":"小霸尖山","LEVEL":"HM","COUNTYNAME":"苗栗縣","HEIGHT":"3418","PARK":"雪霸國家公園","MGROUP":"八銳-2"},"geometry":{"type":"Point","coordinates":[121.25205,24.45557]}},
{"type":"Feature","properties":{"POINTNAME":"合歡山","LEVEL":"HM","COUNTYNAME":"南投縣","HEIGHT":"3417","PARK":"太魯閣國家公園","MGROUP":"十潤-3"},"geometry":{"type":"Point","coordinates":[121.27117,24.14263]}},
{"type":"Feature","properties":{"POINTNAME":"南玉山","LEVEL":"HM","COUNTYNAME":"高雄市","HEIGHT":"3383","PARK":"玉山國家公園","MGROUP":"十潤-4"},"geometry":{"type":"Point","coordinates":[120.92491,23.42928]}},
{"type":"Feature","properties":{"POINTNAME":"畢祿山","LEVEL":"HM","COUNTYNAME":"花蓮縣、南投縣","HEIGHT":"3371","PARK":"太魯閣國家公園","MGROUP":"八瘦-3"},"geometry":{"type":"Point","coordinates":[121.34716,24.21358]}},
{"type":"Feature","properties":{"POINTNAME":"卓社大山","LEVEL":"HM","COUNTYNAME":"南投縣","HEIGHT":"3369","PARK":"","MGROUP":"九峨-5"},"geometry":{"type":"Point","coordinates":[121.11582,23.83457]}},
{"type":"Feature","properties":{"POINTNAME":"奇萊南峰","LEVEL":"HM","COUNTYNAME":"南投縣","HEIGHT":"3358","PARK":"","MGROUP":"十崇-7"},"geometry":{"type":"Point","coordinates":[121.27981,24.06122]}},
{"type":"Feature","properties":{"POINTNAME":"南雙頭山","LEVEL":"HM","COUNTYNAME":"花蓮縣、高雄市","HEIGHT":"3356","PARK":"玉山國家公園","MGROUP":"九峨-6"},"geometry":{"type":"Point","coordinates":[121.01053,23.34606]}},
{"type":"Feature","properties":{"POINTNAME":"能高南峰","LEVEL":"HM","COUNTYNAME":"南投縣、花蓮縣","HEIGHT":"3349","PARK":"","MGROUP":"十峻-9"},"geometry":{"type":"Point","coordinates":[121.27808,23.96537]}},
{"type":"Feature","properties":{"POINTNAME":"志佳陽大山","LEVEL":"HM","COUNTYNAME":"臺中市","HEIGHT":"3345","PARK":"雪霸國家公園","MGROUP":"八秀-4"},"geometry":{"type":"Point","coordinates":[121.10896,24.20268]}},
{"type":"Feature","properties":{"POINTNAME":"白姑大山","LEVEL":"HM","COUNTYNAME":"南投縣、臺中市","HEIGHT":"3342","PARK":"","MGROUP":"十翠-7"},"geometry":{"type":"Point","coordinates":[121.00959,23.49020]}},
{"type":"Feature","properties":{"POINTNAME":"八通關山","LEVEL":"HM","COUNTYNAME":"南投縣","HEIGHT":"3335","PARK":"玉山國家公園","MGROUP":"八銳-3"},"geometry":{"type":"Point","coordinates":[121.12738,23.31642]}},
{"type":"Feature","properties":{"POINTNAME":"新康山","LEVEL":"HM","COUNTYNAME":"花蓮縣","HEIGHT":"3331","PARK":"玉山國家公園","MGROUP":"十峻-10"},"geometry":{"type":"Point","coordinates":[121.21354,23.60042]}},
{"type":"Feature","properties":{"POINTNAME":"丹大山","LEVEL":"HM","COUNTYNAME":"南投縣、花蓮縣","HEIGHT":"3325","PARK":"","MGROUP":"九嶂-3"},"geometry":{"type":"Point","coordinates":[121.30490,24.43262]}},
{"type":"Feature","properties":{"POINTNAME":"桃山","LEVEL":"HM","COUNTYNAME":"新竹縣、臺中市","HEIGHT":"3325","PARK":"雪霸國家公園","MGROUP":"八秀-5"},"geometry":{"type":"Point","coordinates":[121.18800,24.30663]}},
{"type":"Feature","properties":{"POINTNAME":"佳陽山","LEVEL":"HM","COUNTYNAME":"臺中市","HEIGHT":"3314","PARK":"雪霸國家公園","MGROUP":"八銳-4"},"geometry":{"type":"Point","coordinates":[121.17506,24.38192]}},
{"type":"Feature","properties":{"POINTNAME":"火石山","LEVEL":"HM","COUNTYNAME":"苗栗縣、臺中市","HEIGHT":"3310","PARK":"雪霸國家公園","MGROUP":"八銳-5"},"geometry":{"type":"Point","coordinates":[121.28814,24.43110]}},
{"type":"Feature","properties":{"POINTNAME":"池有山","LEVEL":"HM","COUNTYNAME":"新竹縣、臺中市","HEIGHT":"3303","PARK":"雪霸國家公園","MGROUP":"六易-1"},"geometry":{"type":"Point","coordinates":[121.24360,24.46999]}},
{"type":"Feature","properties":{"POINTNAME":"伊澤山","LEVEL":"HM","COUNTYNAME":"苗栗縣、新竹縣","HEIGHT":"3297","PARK":"雪霸國家公園","MGROUP":"六易-2"},"geometry":{"type":"Point","coordinates":[120.87420,23.05118]}},
{"type":"Feature","properties":{"POINTNAME":"卑南主山","LEVEL":"HM","COUNTYNAME":"高雄市、台東縣","HEIGHT":"3295","PARK":"","MGROUP":"十崇-8"},"geometry":{"type":"Point","coordinates":[120.96237,23.57737]}},
{"type":"Feature","properties":{"POINTNAME":"干卓萬山","LEVEL":"HM","COUNTYNAME":"南投縣","HEIGHT":"3284","PARK":"","MGROUP":"八瘦-4"},"geometry":{"type":"Point","coordinates":[121.25132,24.35778]}},
{"type":"Feature","properties":{"POINTNAME":"太魯閣大山","LEVEL":"HM","COUNTYNAME":"花蓮縣","HEIGHT":"3283","PARK":"太魯閣國家公園","MGROUP":"十崇-9"},"geometry":{"type":"Point","coordinates":[121.13899,23.87605]}},
{"type":"Feature","properties":{"POINTNAME":"轆轆山","LEVEL":"HM","COUNTYNAME":"高雄市","HEIGHT":"3279","PARK":"玉山國家公園","MGROUP":"八銳-7"},"geometry":{"type":"Point","coordinates":[121.42098,24.07908]}},
{"type":"Feature","properties":{"POINTNAME":"喀西帕南山","LEVEL":"HM","COUNTYNAME":"花蓮縣","HEIGHT":"3276","PARK":"玉山國家公園","MGROUP":"九偏-4"},"geometry":{"type":"Point","coordinates":[120.99808,23.39136]}},
{"type":"Feature","properties":{"POINTNAME":"內嶺爾山","LEVEL":"HM","COUNTYNAME":"花蓮縣","HEIGHT":"3275","PARK":"","MGROUP":"十崇-10"},"geometry":{"type":"Point","coordinates":[121.19522,23.46863]}},
{"type":"Feature","properties":{"POINTNAME":"鈴鳴山","LEVEL":"HM","COUNTYNAME":"臺中市、花蓮縣","HEIGHT":"3272","PARK":"太魯閣國家公園","MGROUP":"八秀-6"},"geometry":{"type":"Point","coordinates":[121.19605,23.57927]}},
{"type":"Feature","properties":{"POINTNAME":"郡大山","LEVEL":"HM","COUNTYNAME":"南投縣","HEIGHT":"3265","PARK":"玉山國家公園","MGROUP":"八秀-7"},"geometry":{"type":"Point","coordinates":[121.35165,24.24438]}},
{"type":"Feature","properties":{"POINTNAME":"能高山","LEVEL":"HM","COUNTYNAME":"南投縣、花蓮縣","HEIGHT":"3262","PARK":"","MGROUP":"九峨-7"},"geometry":{"type":"Point","coordinates":[121.26025,23.99233]}},
{"type":"Feature","properties":{"POINTNAME":"萬東山西峰","LEVEL":"HM","COUNTYNAME":"南投縣","HEIGHT":"3258","PARK":"","MGROUP":"九偏-5"},"geometry":{"type":"Point","coordinates":[121.18552,23.85187]}},
{"type":"Feature","properties":{"POINTNAME":"劍山","LEVEL":"HM","COUNTYNAME":"臺中市","HEIGHT":"3253","PARK":"雪霸國家公園","MGROUP":"九嶂-5"},"geometry":{"type":"Point","coordinates":[121.17020,24.29557]}},
{"type":"Feature","properties":{"POINTNAME":"屏風山","LEVEL":"HM","COUNTYNAME":"花蓮縣","HEIGHT":"3250","PARK":"太魯閣國家公園","MGROUP":"九嶂-6"},"geometry":{"type":"Point","coordinates":[121.34293,24.14928]}},
{"type":"Feature","properties":{"POINTNAME":"小關山","LEVEL":"HM","COUNTYNAME":"高雄市、台東縣","HEIGHT":"3249","PARK":"","MGROUP":"九峨-8"},"geometry":{"type":"Point","coordinates":[120.87612,23.15165]}},
{"type":"Feature","properties":{"POINTNAME":"義西請馬至山","LEVEL":"HM","COUNTYNAME":"花蓮縣、南投縣","HEIGHT":"3245","PARK":"","MGROUP":"七峭-4"},"geometry":{"type":"Point","coordinates":[121.15327,23.58646]}},
{"type":"Feature","properties":{"POINTNAME":"牧山","LEVEL":"HM","COUNTYNAME":"南投縣","HEIGHT":"3241","PARK":"","MGROUP":"六易-5"},"geometry":{"type":"Point","coordinates":[121.16021,23.86290]}},
{"type":"Feature","properties":{"POINTNAME":"玉山前峰","LEVEL":"HM","COUNTYNAME":"嘉義縣、南投縣","HEIGHT":"3239","PARK":"玉山國家公園","MGROUP":"六易-5"},"geometry":{"type":"Point","coordinates":[120.91766,23.47561]}},
{"type":"Feature","properties":{"POINTNAME":"石門山","LEVEL":"HM","COUNTYNAME":"花蓮縣、南投縣","HEIGHT":"3237","PARK":"太魯閣國家公園","MGROUP":"八小巒-2"},"geometry":{"type":"Point","coordinates":[121.28459,24.15244]}},
{"type":"Feature","properties":{"POINTNAME":"無雙山","LEVEL":"HM","COUNTYNAME":"南投縣","HEIGHT":"3231","PARK":"","MGROUP":"九嶂-7"},"geometry":{"type":"Point","coordinates":[121.05432,23.59157]}},
{"type":"Feature","properties":{"POINTNAME":"塔關山","LEVEL":"HM","COUNTYNAME":"台東縣、高雄市","HEIGHT":"3222","PARK":"玉山國家公園","MGROUP":"七峭-5"},"geometry":{"type":"Point","coordinates":[120.94222,23.25197]}},
{"type":"Feature","properties":{"POINTNAME":"馬比杉山","LEVEL":"HM","COUNTYNAME":"宜蘭縣、花蓮縣","HEIGHT":"3211","PARK":"太魯閣國家公園","MGROUP":"九平-7"},"geometry":{"type":"Point","coordinates":[121.48563,24.34833]}},
{"type":"Feature","properties":{"POINTNAME":"達芬尖山","LEVEL":"HM","COUNTYNAME":"南投縣、高雄市、花蓮縣","HEIGHT":"3208","PARK":"玉山國家公園","MGROUP":"三尖-3"},"geometry":{"type":"Point","coordinates":[121.01322,23.43296]}},
{"type":"Feature","properties":{"POINTNAME":"雪山東峰","LEVEL":"HM","COUNTYNAME":"臺中市","HEIGHT":"3201","PARK":"雪霸國家公園","MGROUP":"八小巒-3"},"geometry":{"type":"Point","coordinates":[121.27207,24.38869]}},
{"type":"Feature","properties":{"POINTNAME":"南華山","LEVEL":"HM","COUNTYNAME":"南投縣、花蓮縣","HEIGHT":"3184","PARK":"","MGROUP":"八瘦-6"},"geometry":{"type":"Point","coordinates":[121.28592,24.03934]}},
{"type":"Feature","properties":{"POINTNAME":"關山嶺山","LEVEL":"HM","COUNTYNAME":"台東縣、高雄市","HEIGHT":"3176","PARK":"玉山國家公園","MGROUP":"八瘦-7"},"geometry":{"type":"Point","coordinates":[120.95946,23.27100]}},
{"type":"Feature","properties":{"POINTNAME":"海諾南山","LEVEL":"HM","COUNTYNAME":"台東縣、高雄市","HEIGHT":"3174","PARK":"","MGROUP":"十潤-6"},"geometry":{"type":"Point","coordinates":[120.91133,23.18560]}},
{"type":"Feature","properties":{"POINTNAME":"中雪山","LEVEL":"HM","COUNTYNAME":"苗栗縣","HEIGHT":"3173","PARK":"雪霸國家公園","MGROUP":"十翠-8"},"geometry":{"type":"Point","coordinates":[121.07806,24.33648]}},
{"type":"Feature","properties":{"POINTNAME":"閂山","LEVEL":"HM","COUNTYNAME":"臺中市","HEIGHT":"3168","PARK":"太魯閣國家公園","MGROUP":"八秀-8"},"geometry":{"type":"Point","coordinates":[121.30987,24.25871]}},
{"type":"Feature","properties":{"POINTNAME":"甘薯峰","LEVEL":"HM","COUNTYNAME":"花蓮縣、臺中市","HEIGHT":"3158","PARK":"太魯閣國家公園","MGROUP":"八小巒-6"},"geometry":{"type":"Point","coordinates":[121.38982,24.29039]}},
{"type":"Feature","properties":{"POINTNAME":"西合歡山","LEVEL":"HM","COUNTYNAME":"南投縣","HEIGHT":"3145","PARK":"太魯閣國家公園","MGROUP":"十翠-9"},"geometry":{"type":"Point","coordinates":[121.24453,24.17761]}},
{"type":"Feature","properties":{"POINTNAME":"審馬陣山","LEVEL":"HM","COUNTYNAME":"宜蘭縣、臺中市","HEIGHT":"3141","PARK":"太魯閣國家公園","MGROUP":"六肩稜-1"},"geometry":{"type":"Point","coordinates":[121.41745,24.38021]}},
{"type":"Feature","properties":{"POINTNAME":"喀拉業山","LEVEL":"HM","COUNTYNAME":"新竹縣、宜蘭縣","HEIGHT":"3133","PARK":"雪霸國家公園","MGROUP":"六肩稜-2"},"geometry":{"type":"Point","coordinates":[121.32129,24.44996]}},
{"type":"Feature","properties":{"POINTNAME":"庫哈諾辛山","LEVEL":"HM","COUNTYNAME":"高雄市","HEIGHT":"3115","PARK":"玉山國家公園","MGROUP":"九偏-8"},"geometry":{"type":"Point","coordinates":[120.90004,23.26277]}},
{"type":"Feature","properties":{"POINTNAME":"加利山","LEVEL":"HM","COUNTYNAME":"苗栗縣","HEIGHT":"3112","PARK":"雪霸國家公園","MGROUP":"六肩稜-3"},"geometry":{"type":"Point","coordinates":[121.21620,24.45950]}},
{"type":"Feature","properties":{"POINTNAME":"白石山","LEVEL":"HM","COUNTYNAME":"南投縣、花蓮縣","HEIGHT":"3110","PARK":"","MGROUP":"七峭-6"},"geometry":{"type":"Point","coordinates":[121.27479,23.90754]}},
{"type":"Feature","properties":{"POINTNAME":"磐石山","LEVEL":"HM","COUNTYNAME":"花蓮縣","HEIGHT":"3106","PARK":"太魯閣國家公園","MGROUP":"九偏-9"},"geometry":{"type":"Point","coordinates":[121.38830,24.10473]}},
{"type":"Feature","properties":{"POINTNAME":"帕托魯山","LEVEL":"HM","COUNTYNAME":"花蓮縣","HEIGHT":"3101","PARK":"太魯閣國家公園","MGROUP":"十潤-8"},"geometry":{"type":"Point","coordinates":[121.46660,24.09944]}},
{"type":"Feature","properties":{"POINTNAME":"北大武山","LEVEL":"HM","COUNTYNAME":"屏東縣、台東縣","HEIGHT":"3092","PARK":"","MGROUP":"五嶽-5"},"geometry":{"type":"Point","coordinates":[120.76141,22.62708]}},
{"type":"Feature","properties":{"POINTNAME":"西巒大山","LEVEL":"HM","COUNTYNAME":"南投縣","HEIGHT":"3081","PARK":"","MGROUP":"七峭-7"},"geometry":{"type":"Point","coordinates":[120.94717,23.69402]}},
{"type":"Feature","properties":{"POINTNAME":"塔芬山","LEVEL":"HM","COUNTYNAME":"花蓮縣、高雄市","HEIGHT":"3070","PARK":"玉山國家公園","MGROUP":"八銳-8"},"geometry":{"type":"Point","coordinates":[121.02679,23.40604]}},
{"type":"Feature","properties":{"POINTNAME":"立霧主山","LEVEL":"HM","COUNTYNAME":"花蓮縣","HEIGHT":"3069","PARK":"太魯閣國家公園","MGROUP":"十巖-9"},"geometry":{"type":"Point","coordinates":[121.44570,24.12491]}},
{"type":"Feature","properties":{"POINTNAME":"安東軍山","LEVEL":"HM","COUNTYNAME":"花蓮縣、南投縣","HEIGHT":"3068","PARK":"","MGROUP":"十潤-9"},"geometry":{"type":"Point","coordinates":[121.26612,23.87271]}},
{"type":"Feature","properties":{"POINTNAME":"光頭山","LEVEL":"HM","COUNTYNAME":"南投縣、花蓮縣","HEIGHT":"3060","PARK":"","MGROUP":"九平-8"},"geometry":{"type":"Point","coordinates":[121.27195,23.93800]}},
{"type":"Feature","properties":{"POINTNAME":"羊頭山","LEVEL":"HM","COUNTYNAME":"花蓮縣","HEIGHT":"3035","PARK":"太魯閣國家公園","MGROUP":"八瘦-8"},"geometry":{"type":"Point","coordinates":[121.37977,24.20826]}},
{"type":"Feature","properties":{"POINTNAME":"布拉克桑山","LEVEL":"HM","COUNTYNAME":"台東縣、花蓮縣","HEIGHT":"3026","PARK":"","MGROUP":"九嶂-9"},"geometry":{"type":"Point","coordinates":[121.03253,23.54839]}},
{"type":"Feature","properties":{"POINTNAME":"駒盆山","LEVEL":"HM","COUNTYNAME":"南投縣","HEIGHT":"3022","PARK":"玉山國家公園","MGROUP":"六肩稜-4"},"geometry":{"type":"Point","coordinates":[121.07870,23.23284]}},
{"type":"Feature","properties":{"POINTNAME":"六順山","LEVEL":"HM","COUNTYNAME":"南投縣、花蓮縣","HEIGHT":"2999","PARK":"","MGROUP":"九平-9"},"geometry":{"type":"Point","coordinates":[121.23955,23.72451]}},
{"type":"Feature","properties":{"POINTNAME":"鹿山","LEVEL":"HM","COUNTYNAME":"高雄市","HEIGHT":"2981","PARK":"玉山國家公園","MGROUP":"六肩稜-6"},"geometry":{"type":"Point","coordinates":[120.98848,23.45065]}}
,
{"type":"Feature","properties":{"POINTNAME":"大屯山","LEVEL":"SHM","COUNTYNAME":"臺北市北投區、新北市淡水區","HEIGHT":"1092","NOTE":"大洞山、大豚山、山名源自平埔族，凱達格蘭人大洞山社"},"geometry":{"type":"Point","coordinates":[121.52308,25.17496]}},
{"type":"Feature","properties":{"POINTNAME":"七星山","LEVEL":"SHM","COUNTYNAME":"臺北市北投區","HEIGHT":"1118","NOTE":"火山噴發後，山體侵蝕成七個大小山頭，狀如北斗七星"},"geometry":{"type":"Point","coordinates":[121.55344,25.17071]}},
{"type":"Feature","properties":{"POINTNAME":"大武崙山","LEVEL":"SHM","COUNTYNAME":"基隆市中山區、安樂區","HEIGHT":"231","NOTE":"砲台山，砲台區為國定古蹟，西側情人湖，同為必遊景點"},"geometry":{"type":"Point","coordinates":[121.70982,25.15851]}},
{"type":"Feature","properties":{"POINTNAME":"槓子寮山","LEVEL":"SHM","COUNTYNAME":"基隆市信義區、中正區","HEIGHT":"163","NOTE":"「槓子」是取自於平埔族，凱達格蘭語「陷阱」的意思"},"geometry":{"type":"Point","coordinates":[121.77577,25.14311]}},
{"type":"Feature","properties":{"POINTNAME":"八里觀音山","LEVEL":"SHM","COUNTYNAME":"新北市五股區、八里區","HEIGHT":"611","NOTE":"八里坌山，山容如橫臥觀音像，可見聖稜、南湖群峰"},"geometry":{"type":"Point","coordinates":[121.42677,25.13592]}},
{"type":"Feature","properties":{"POINTNAME":"基隆山","LEVEL":"SHM","COUNTYNAME":"新北市瑞芳區","HEIGHT":"587","NOTE":"雞籠山、大肚美人山、基隆富士山，是一座錐狀死火山"},"geometry":{"type":"Point","coordinates":[121.84920,25.11873]}},
{"type":"Feature","properties":{"POINTNAME":"紅淡山","LEVEL":"SHM","COUNTYNAME":"基隆市仁愛區、信義區","HEIGHT":"210","NOTE":"雙龍山，清法戰爭古戰場，日人思鄉，廣植森氏紅淡比"},"geometry":{"type":"Point","coordinates":[121.75204,25.11886]}},
{"type":"Feature","properties":{"POINTNAME":"大崙頭山","LEVEL":"SHM","COUNTYNAME":"臺北市內湖區、士林區","HEIGHT":"472","NOTE":"有「台北小溪頭」之稱，平易近人的都會森林公園"},"geometry":{"type":"Point","coordinates":[121.58548,25.10878]}},
{"type":"Feature","properties":{"POINTNAME":"劍潭山","LEVEL":"SHM","COUNTYNAME":"臺北市士林區","HEIGHT":"153","NOTE":"因為臨劍潭得名，戒嚴時期，曾被列為軍事管制禁區"},"geometry":{"type":"Point","coordinates":[121.52941,25.08426]}},
{"type":"Feature","properties":{"POINTNAME":"五分山","LEVEL":"SHM","COUNTYNAME":"新北市瑞芳區、平溪區","HEIGHT":"757","NOTE":"粗坑口山、滴水大尖，山頂有中央氣象局轄下的雷達站"},"geometry":{"type":"Point","coordinates":[121.78075,25.07095]}},
{"type":"Feature","properties":{"POINTNAME":"姜子寮山","LEVEL":"SHM","COUNTYNAME":"基隆市暖暖、新北汐止.平溪","HEIGHT":"729","NOTE":"真長山、三角架山、石硿大崙，山頂有360度無敵視野"},"geometry":{"type":"Point","coordinates":[121.73016,25.05326]}},
{"type":"Feature","properties":{"POINTNAME":"汐止大尖山","LEVEL":"SHM","COUNTYNAME":"新北市汐止區","HEIGHT":"462","NOTE":"大針山、秀峰山、峰仔峙山，山腳全台聞名佛寺─慈航堂"},"geometry":{"type":"Point","coordinates":[121.66819,25.05118]}},
{"type":"Feature","properties":{"POINTNAME":"南港山","LEVEL":"SHM","COUNTYNAME":"臺北市南港區、信義區","HEIGHT":"374","NOTE":"最高峰九五峰，展望開闊，與四獸山等，熱門山徑相連"},"geometry":{"type":"Point","coordinates":[121.58632,25.02557]}},
{"type":"Feature","properties":{"POINTNAME":"土庫岳","LEVEL":"SHM","COUNTYNAME":"臺北市南港區、新北市深坑區","HEIGHT":"388","NOTE":"望高寮、大坪山，昔日為防範番匪侵擾的制高點"},"geometry":{"type":"Point","coordinates":[121.63558,25.02312]}},
{"type":"Feature","properties":{"POINTNAME":"樹林大棟山","LEVEL":"SHM","COUNTYNAME":"新北市樹林區、桃園市龜山區","HEIGHT":"402","NOTE":"龜崙山、橫坑子山，林口台地的最高峰，展望絕佳"},"geometry":{"type":"Point","coordinates":[121.38429,24.99579]}},
{"type":"Feature","properties":{"POINTNAME":"南勢角山","LEVEL":"SHM","COUNTYNAME":"新北市新店區、中和區","HEIGHT":"302","NOTE":"烘爐山、烘爐地山，大台北地區欣賞夜景的勝地"},"geometry":{"type":"Point","coordinates":[121.49586,24.96927]}},
{"type":"Feature","properties":{"POINTNAME":"二格山","LEVEL":"SHM","COUNTYNAME":"臺北市文山區、新北市石碇區","HEIGHT":"676","NOTE":"石尖山，新店溪和景美溪的分水嶺，山頂觀景台展望極佳"},"geometry":{"type":"Point","coordinates":[121.61978,24.96724]}},
{"type":"Feature","properties":{"POINTNAME":"天上山","LEVEL":"SHM","COUNTYNAME":"新北市土城區、三峽區","HEIGHT":"430","NOTE":"內坡山、皇帝山，山腰的承天禪寺，是全台知名佛寺"},"geometry":{"type":"Point","coordinates":[121.45619,24.94629]}},
{"type":"Feature","properties":{"POINTNAME":"鳶山","LEVEL":"SHM","COUNTYNAME":"新北市三峽區、鶯歌區","HEIGHT":"321","NOTE":"福德坑山，觀賞大台北地區，晨昏夜景的最佳地點"},"geometry":{"type":"Point","coordinates":[121.34524,24.92662]}},
{"type":"Feature","properties":{"POINTNAME":"獅仔頭山","LEVEL":"SHM","COUNTYNAME":"新北市新店區、三峽區","HEIGHT":"858","NOTE":"獅子頭山、獅頭山，附近防蕃古碑、隘寮遺址不可錯過"},"geometry":{"type":"Point","coordinates":[121.49128,24.90471]}},
{"type":"Feature","properties":{"POINTNAME":"金面山","LEVEL":"SHM","COUNTYNAME":"桃園市大溪區","HEIGHT":"666","NOTE":"鳥嘴尖、鳥嘴山，山頂視野佳，可俯瞰大溪、龍潭一帶"},"geometry":{"type":"Point","coordinates":[121.33558,24.86650]}},
{"type":"Feature","properties":{"POINTNAME":"東眼山","LEVEL":"SHM","COUNTYNAME":"新北市三峽區、桃園市復興區","HEIGHT":"1212","NOTE":"昔日泰雅族大豹群，曾在此建立部落Tongang得名"},"geometry":{"type":"Point","coordinates":[121.41757,24.82512]}},
{"type":"Feature","properties":{"POINTNAME":"溪洲山","LEVEL":"SHM","COUNTYNAME":"桃園市大溪區","HEIGHT":"576","NOTE":"竹篙厝山(溪洲山北峰)，山區可見昔日隘勇線遺跡"},"geometry":{"type":"Point","coordinates":[121.27738,24.82448]}},
{"type":"Feature","properties":{"POINTNAME":"龍潭石門山","LEVEL":"SHM","COUNTYNAME":"桃園市龍潭區","HEIGHT":"549","NOTE":"小竹坑山，位在石門水庫西側,是桃園龍潭地區熱門郊山"},"geometry":{"type":"Point","coordinates":[121.22953,24.80999]}},
{"type":"Feature","properties":{"POINTNAME":"石牛山","LEVEL":"SHM","COUNTYNAME":"桃園市復興區、新竹縣關西鎮","HEIGHT":"670","NOTE":"峰頂巨岩狀似坐臥石牛，平台展望遼闊，有360度視野"},"geometry":{"type":"Point","coordinates":[121.25343,24.79351]}},
{"type":"Feature","properties":{"POINTNAME":"十八尖山","LEVEL":"SHM","COUNTYNAME":"新竹市東區","HEIGHT":"132","NOTE":"由18個丘陵山頭組成，日治時期規劃開闢的「森林公園」"},"geometry":{"type":"Point","coordinates":[120.98473,24.79253]}},
{"type":"Feature","properties":{"POINTNAME":"飛鳳山","LEVEL":"SHM","COUNTYNAME":"新竹縣芎林鄉","HEIGHT":"461","NOTE":"中坑山、王爺坑山，山區展望佳，可見台北101大樓"},"geometry":{"type":"Point","coordinates":[121.11910,24.76652]}},
{"type":"Feature","properties":{"POINTNAME":"李崠山","LEVEL":"SHM","COUNTYNAME":"桃園市復興區、新竹縣尖石鄉","HEIGHT":"1914","NOTE":"李棟山，日軍曾於山頂，構築堡壘防番，是知名古戰場"},"geometry":{"type":"Point","coordinates":[121.30375,24.69266]}},
{"type":"Feature","properties":{"POINTNAME":"獅頭山","LEVEL":"SHM","COUNTYNAME":"苗栗縣三灣鄉、南庄鄉","HEIGHT":"492","NOTE":"山形狀似一隻蹲伏的獅子，沿途可見古樸有致的寺廟"},"geometry":{"type":"Point","coordinates":[121.00661,24.64423]}},
{"type":"Feature","properties":{"POINTNAME":"五指山","LEVEL":"SHM","COUNTYNAME":"新竹縣竹東鎮.五峰鄉.北埔鄉","HEIGHT":"1062","NOTE":"五峰並列，宛如掌指而得名，日治時期臺灣十二勝之一"},"geometry":{"type":"Point","coordinates":[121.09628,24.64132]}},
{"type":"Feature","properties":{"POINTNAME":"鵝公髻山","LEVEL":"SHM","COUNTYNAME":"新竹縣五峰鄉、苗栗縣南庄鄉","HEIGHT":"1576","NOTE":"堆穀山、蜈蚣髻山，賽夏族人稱「那義哮」，意指蜈蚣"},"geometry":{"type":"Point","coordinates":[121.07570,24.61005]}},
{"type":"Feature","properties":{"POINTNAME":"向天湖山","LEVEL":"SHM","COUNTYNAME":"苗栗縣南庄鄉","HEIGHT":"1253","NOTE":"北側賽夏族聖地「向天湖」，是矮靈祭的傳統祭場"},"geometry":{"type":"Point","coordinates":[121.02715,24.56702]}},
{"type":"Feature","properties":{"POINTNAME":"仙山","LEVEL":"SHM","COUNTYNAME":"苗栗縣南庄鄉、獅潭鄉","HEIGHT":"965","NOTE":"紅毛館山，自認勇腳的山友，可以挑戰「神仙縱走」"},"geometry":{"type":"Point","coordinates":[120.95307,24.54254]}},
{"type":"Feature","properties":{"POINTNAME":"加里山","LEVEL":"SHM","COUNTYNAME":"苗栗縣南庄鄉、泰安鄉","HEIGHT":"2220","NOTE":"加里仙山，賽夏族稱為「比農意勇」，意為眺望絕佳的山"},"geometry":{"type":"Point","coordinates":[121.01255,24.51080]}},
{"type":"Feature","properties":{"POINTNAME":"火炎山","LEVEL":"SHM","COUNTYNAME":"苗栗縣三義鄉、苑裡鎮","HEIGHT":"596","NOTE":"紅土礫石層，台灣三大惡地形之首，也是南、北氣候分界"},"geometry":{"type":"Point","coordinates":[120.73031,24.37735]}},
{"type":"Feature","properties":{"POINTNAME":"關刀山","LEVEL":"SHM","COUNTYNAME":"苗栗縣大湖鄉、三義鄉","HEIGHT":"889","NOTE":"草排山、插旗崠，昭和10年(1935年)，曾發生大地震"},"geometry":{"type":"Point","coordinates":[120.81094,24.37538]}},
{"type":"Feature","properties":{"POINTNAME":"馬那邦山","LEVEL":"SHM","COUNTYNAME":"苗栗縣大湖鄉、泰安鄉","HEIGHT":"1406","NOTE":"馬拉邦山，古戰場，山頂有「馬那邦山戰諸地」紀念碑"},"geometry":{"type":"Point","coordinates":[120.91393,24.36725]}},
{"type":"Feature","properties":{"POINTNAME":"鐵砧山","LEVEL":"SHM","COUNTYNAME":"臺中市外埔區","HEIGHT":"236","NOTE":"蓬山、銀碇山，山頂平坦開闊，遠望宛如一塊大砧板"},"geometry":{"type":"Point","coordinates":[120.65525,24.35635]}},
{"type":"Feature","properties":{"POINTNAME":"稍來山","LEVEL":"SHM","COUNTYNAME":"臺中市和平區","HEIGHT":"2307","NOTE":"泰雅族語Solaiy，位在大雪山國家森林遊樂區"},"geometry":{"type":"Point","coordinates":[120.97157,24.23760]}},
{"type":"Feature","properties":{"POINTNAME":"聚興山","LEVEL":"SHM","COUNTYNAME":"臺中市潭子區","HEIGHT":"500","NOTE":"新田登山步道，規劃完善，可與西北方林牛山連稜縱走"},"geometry":{"type":"Point","coordinates":[120.74287,24.22016]}},
{"type":"Feature","properties":{"POINTNAME":"頭嵙山","LEVEL":"SHM","COUNTYNAME":"臺中市北屯區、新社區","HEIGHT":"854","NOTE":"圓木步道有，台中萬里長城之稱，山區可見冰河孑遺植物"},"geometry":{"type":"Point","coordinates":[120.80027,24.17937]}},
{"type":"Feature","properties":{"POINTNAME":"南觀音山","LEVEL":"SHM","COUNTYNAME":"臺中市北屯區","HEIGHT":"314","NOTE":"觀音山，山頂有座玉佛寺，及法像莊嚴的高大觀音像"},"geometry":{"type":"Point","coordinates":[120.74110,24.17306]}},
{"type":"Feature","properties":{"POINTNAME":"三汀山","LEVEL":"SHM","COUNTYNAME":"臺中市太平區","HEIGHT":"480","NOTE":"埤頭山、望高寮，西側山坳有921地震後，形成的堰塞湖"},"geometry":{"type":"Point","coordinates":[120.75271,24.13905]}},
{"type":"Feature","properties":{"POINTNAME":"暗影山","LEVEL":"SHM","COUNTYNAME":"臺中市太平區","HEIGHT":"998","NOTE":"酒桶山，相傳有土地公挑酒桶，協助鄭成功軍隊的神蹟"},"geometry":{"type":"Point","coordinates":[120.81797,24.13799]}},
{"type":"Feature","properties":{"POINTNAME":"大橫屏山","LEVEL":"SHM","COUNTYNAME":"臺中市太平區、南投縣國姓鄉","HEIGHT":"1207","NOTE":"山勢綿延雄偉，如巨大屏風，鄰近槍櫃園區、國姓糯米橋"},"geometry":{"type":"Point","coordinates":[120.82907,24.07494]}},
{"type":"Feature","properties":{"POINTNAME":"阿罩霧山","LEVEL":"SHM","COUNTYNAME":"臺中市霧峰區","HEIGHT":"251","NOTE":"阿罩峰，可順訪山腳下，霧峰林家宮保第園區建築群落"},"geometry":{"type":"Point","coordinates":[120.71367,24.06124]}},
{"type":"Feature","properties":{"POINTNAME":"九份二山","LEVEL":"SHM","COUNTYNAME":"南投縣中寮鄉、國姓鄉","HEIGHT":"1173","NOTE":"九分二山、九份二尖，國家地震紀念園區，見證百年浩劫"},"geometry":{"type":"Point","coordinates":[120.84178,23.93459]}},
{"type":"Feature","properties":{"POINTNAME":"橫山_(南投縣)","LEVEL":"SHM","COUNTYNAME":"南投縣南投市、名間鄉","HEIGHT":"443","NOTE":"尖山湖山、八卦山脈最高峰，視野遼闊，賞鷹最佳地點"},"geometry":{"type":"Point","coordinates":[120.63171,23.88922]}},
{"type":"Feature","properties":{"POINTNAME":"貓囒山","LEVEL":"SHM","COUNTYNAME":"南投縣魚池鄉","HEIGHT":"1016","NOTE":"貓囒山、山名源自邵族水沙連六社中，貓囒社「malan」"},"geometry":{"type":"Point","coordinates":[120.90815,23.88140]}},
{"type":"Feature","properties":{"POINTNAME":"集集大山","LEVEL":"SHM","COUNTYNAME":"南投縣集集鎮、中寮鄉","HEIGHT":"1390","NOTE":"昔稱大崙山，後因商人收購山產，慣稱「集集那邊的大山」"},"geometry":{"type":"Point","coordinates":[120.83826,23.85498]}},
{"type":"Feature","properties":{"POINTNAME":"松柏坑山","LEVEL":"SHM","COUNTYNAME":"彰化縣二水鄉、南投縣名間鄉","HEIGHT":"431","NOTE":"松柏嶺、獅子頭山，漫步茶香步道，俯瞰濁水溪夕陽美景"},"geometry":{"type":"Point","coordinates":[120.64218,23.82005]}},
{"type":"Feature","properties":{"POINTNAME":"後尖山","LEVEL":"SHM","COUNTYNAME":"南投縣水里鄉、魚池鄉","HEIGHT":"1008","NOTE":"望高寮，日月潭四兄妹老么，山頂可眺望日月潭風光"},"geometry":{"type":"Point","coordinates":[120.89833,23.81403]}},
{"type":"Feature","properties":{"POINTNAME":"鳳凰山_(南投縣)","LEVEL":"SHM","COUNTYNAME":"南投縣鹿谷鄉","HEIGHT":"1698","NOTE":"山勢猶如展翅鳳凰，終年雲霧繚繞，溪頭四珠排行老三"},"geometry":{"type":"Point","coordinates":[120.80630,23.69171]}},
{"type":"Feature","properties":{"POINTNAME":"金柑樹山","LEVEL":"SHM","COUNTYNAME":"南投縣信義鄉、竹山鎮","HEIGHT":"2086","NOTE":"金甘樹山、崩壁頭山，溪頭四珠老二，順遊杉林溪遊樂區"},"geometry":{"type":"Point","coordinates":[120.81404,23.64113]}},
{"type":"Feature","properties":{"POINTNAME":"石壁山","LEVEL":"SHM","COUNTYNAME":"雲林縣古坑鄉、嘉義阿里山鄉","HEIGHT":"1749","NOTE":"當地人稱基點峰，雲林縣第一高峰，步道可連走雲嘉南峰"},"geometry":{"type":"Point","coordinates":[120.72467,23.60373]}},
{"type":"Feature","properties":{"POINTNAME":"雲嘉大尖山","LEVEL":"SHM","COUNTYNAME":"雲林縣古坑鄉、嘉義縣梅山鄉","HEIGHT":"1301","NOTE":"尖山母山、大尖山，滿山遍野茶園景觀，著名的茶山故鄉"},"geometry":{"type":"Point","coordinates":[120.62328,23.59004]}},
{"type":"Feature","properties":{"POINTNAME":"梨子腳山","LEVEL":"SHM","COUNTYNAME":"嘉義縣梅山鄉","HEIGHT":"1176","NOTE":"掘尺嶺山、祝壽山，滿山茶園阡陌，沿途視野遼闊"},"geometry":{"type":"Point","coordinates":[120.60824,23.56721]}},
{"type":"Feature","properties":{"POINTNAME":"獨立山","LEVEL":"SHM","COUNTYNAME":"嘉義縣竹崎鄉","HEIGHT":"814","NOTE":"山容圓渾獨立，百年阿里山森林鐵道，盤繞螺旋上山聞名"},"geometry":{"type":"Point","coordinates":[120.60792,23.53671]}},
{"type":"Feature","properties":{"POINTNAME":"大塔山","LEVEL":"SHM","COUNTYNAME":"南投縣信義鄉、嘉義阿里山鄉","HEIGHT":"2662","NOTE":"塔山、鄒族稱「hotsubu」，意思為靈魂歸宿之地"},"geometry":{"type":"Point","coordinates":[120.80775,23.53591]}},
{"type":"Feature","properties":{"POINTNAME":"奮起湖大凍山","LEVEL":"SHM","COUNTYNAME":"嘉義縣梅山鄉、阿里山鄉","HEIGHT":"1976","NOTE":"糞箕山，位在奮起湖東側，是中南部觀賞日出的勝地"},"geometry":{"type":"Point","coordinates":[120.71988,23.49789]}},
{"type":"Feature","properties":{"POINTNAME":"大湖尖山","LEVEL":"SHM","COUNTYNAME":"嘉義縣番路鄉、竹崎鄉","HEIGHT":"1311","NOTE":"尖崠仔山，尖突的山峰非常顯眼，在地人稱「尖山」"},"geometry":{"type":"Point","coordinates":[120.64251,23.49127]}},
{"type":"Feature","properties":{"POINTNAME":"紅毛埤山","LEVEL":"SHM","COUNTYNAME":"嘉義市東區","HEIGHT":"150","NOTE":"據傳荷蘭人佔台，在嘉義市東郊挖儲水池，故稱「紅毛埤」"},"geometry":{"type":"Point","coordinates":[120.49211,23.48003]}},
{"type":"Feature","properties":{"POINTNAME":"關仔嶺大凍山","LEVEL":"SHM","COUNTYNAME":"嘉義縣大埔鄉、臺南市白河區","HEIGHT":"1237","NOTE":"大棟山、凍頭山，台南市第一高峰，可眺望關子嶺溫泉區"},"geometry":{"type":"Point","coordinates":[120.52279,23.31136]}},
{"type":"Feature","properties":{"POINTNAME":"崁頭山","LEVEL":"SHM","COUNTYNAME":"臺南市東山區","HEIGHT":"838","NOTE":"坎頭山，林蔭茂密，天晴時可見曾文水庫、嘉南濱海"},"geometry":{"type":"Point","coordinates":[120.50463,23.26594]}},
{"type":"Feature","properties":{"POINTNAME":"三腳南山","LEVEL":"SHM","COUNTYNAME":"嘉義縣大埔鄉、臺南市南化區","HEIGHT":"1184","NOTE":"三角南山，台南市第二高峰，可俯瞰整個曾文水庫景緻"},"geometry":{"type":"Point","coordinates":[120.59259,23.24063]}},
{"type":"Feature","properties":{"POINTNAME":"西阿里關山","LEVEL":"SHM","COUNTYNAME":"臺南市南化區、高雄市甲仙區","HEIGHT":"971","NOTE":"小林山、西阿里頭山，位在清代時修築，小林古道最高點"},"geometry":{"type":"Point","coordinates":[120.64132,23.18300]}},
{"type":"Feature","properties":{"POINTNAME":"竹子尖山","LEVEL":"SHM","COUNTYNAME":"臺南市楠西區、南化區","HEIGHT":"1109","NOTE":"座落梅嶺風景區上方，沿途展望頗佳，是南部熱門郊山"},"geometry":{"type":"Point","coordinates":[120.56565,23.17590]}},
{"type":"Feature","properties":{"POINTNAME":"藤枝山","LEVEL":"SHM","COUNTYNAME":"高雄市桃源區","HEIGHT":"1561","NOTE":"藤枝為布農族活動領域，日治時期曾設立京都大學演習林"},"geometry":{"type":"Point","coordinates":[120.76560,23.07506]}},
{"type":"Feature","properties":{"POINTNAME":"白雲山","LEVEL":"SHM","COUNTYNAME":"高雄市甲仙區","HEIGHT":"1043","NOTE":"廓亭山、刣亭山，可遠眺南橫群峰，俯瞰荖濃溪六龜聚落"},"geometry":{"type":"Point","coordinates":[120.62269,23.05587]}},
{"type":"Feature","properties":{"POINTNAME":"刣牛湖山","LEVEL":"SHM","COUNTYNAME":"臺南市南化區、高雄市杉林區","HEIGHT":"798","NOTE":"烏山嶺、鷹嘴尖，位在烏山步道最高點，山頂視野絕佳"},"geometry":{"type":"Point","coordinates":[120.52321,23.04854]}},
{"type":"Feature","properties":{"POINTNAME":"鳴海山","LEVEL":"SHM","COUNTYNAME":"高雄市茂林區","HEIGHT":"1409","NOTE":"日治六龜警備道南段制高點，沿途可見駁坎、駐在所遺跡"},"geometry":{"type":"Point","coordinates":[120.69050,22.95534]}},
{"type":"Feature","properties":{"POINTNAME":"旗尾山","LEVEL":"SHM","COUNTYNAME":"高雄市旗山區","HEIGHT":"305","NOTE":"旂尾山，山勢挺拔，山頂旗尾山祠，可遠眺北大武山諸峰"},"geometry":{"type":"Point","coordinates":[120.49682,22.89678]}},
{"type":"Feature","properties":{"POINTNAME":"尾寮山","LEVEL":"SHM","COUNTYNAME":"高雄市茂林區、屏東三地門鄉","HEIGHT":"1426","NOTE":"昔日平埔族人，為防原住民侵擾，隘勇線最後端稱「尾寮」"},"geometry":{"type":"Point","coordinates":[120.67639,22.85710]}},
{"type":"Feature","properties":{"POINTNAME":"大崗山","LEVEL":"SHM","COUNTYNAME":"高雄市岡山區.阿蓮區.田寮區","HEIGHT":"312","NOTE":"大岡山，隆起珊瑚礁台地，形成盤龍峽谷等，岩洞地景"},"geometry":{"type":"Point","coordinates":[120.34857,22.86031]}},
{"type":"Feature","properties":{"POINTNAME":"大社觀音山","LEVEL":"SHM","COUNTYNAME":"高雄市大社區、仁武區","HEIGHT":"175","NOTE":"北觀音山，土質細緻，可赤腳走，全台首座赤腳自然公園"},"geometry":{"type":"Point","coordinates":[120.37380,22.72720]}},
{"type":"Feature","properties":{"POINTNAME":"笠頂山","LEVEL":"SHM","COUNTYNAME":"屏東縣瑪家鄉","HEIGHT":"656","NOTE":"笠置山、公教山，位處北大武支脈尾稜，也稱為「小聖山」"},"geometry":{"type":"Point","coordinates":[120.64406,22.65020]}},
{"type":"Feature","properties":{"POINTNAME":"壽山","LEVEL":"SHM","COUNTYNAME":"高雄市鼓山區","HEIGHT":"356","NOTE":"柴山、打狗山、打鼓山、鼓山、埋金山、麒麟山、高雄山"},"geometry":{"type":"Point","coordinates":[120.26565,22.64207]}},
{"type":"Feature","properties":{"POINTNAME":"棚集山","LEVEL":"SHM","COUNTYNAME":"屏東縣來義鄉","HEIGHT":"898","NOTE":"山腳排灣族丹林部落，舊名扎拉秀，日文漢音即為「棚集」"},"geometry":{"type":"Point","coordinates":[120.65770,22.50807]}},
{"type":"Feature","properties":{"POINTNAME":"女乃山","LEVEL":"SHM","COUNTYNAME":"屏東縣獅子鄉、牡丹鄉","HEIGHT":"805","NOTE":"女仍山、位在恆春半島迎風面，可遠望太平洋及台灣海峽"},"geometry":{"type":"Point","coordinates":[120.78493,22.19531]}},
{"type":"Feature","properties":{"POINTNAME":"里龍山","LEVEL":"SHM","COUNTYNAME":"屏東縣獅子鄉、牡丹鄉","HEIGHT":"1059","NOTE":"山勢雄偉，受落山風影響，多低矮灌木，恆春半島最高峰"},"geometry":{"type":"Point","coordinates":[120.73297,22.16389]}},
{"type":"Feature","properties":{"POINTNAME":"大山母山","LEVEL":"SHM","COUNTYNAME":"屏東縣恆春鎮","HEIGHT":"325","NOTE":"可俯瞰山海壯麗景觀，恆春半島最南端，形如魚尾的岬角"},"geometry":{"type":"Point","coordinates":[120.77089,21.97017]}},
{"type":"Feature","properties":{"POINTNAME":"灣坑頭山","LEVEL":"SHM","COUNTYNAME":"宜蘭縣頭城鎮、新北市貢寮區","HEIGHT":"616","NOTE":"位在雪山山脈起點，漫步蜿蜒大草原，俯瞰海中龜山島"},"geometry":{"type":"Point","coordinates":[121.91051,24.97456]}},
{"type":"Feature","properties":{"POINTNAME":"三角崙山","LEVEL":"SHM","COUNTYNAME":"宜蘭縣礁溪鄉、新北市坪林區","HEIGHT":"1029","NOTE":"蘭陽五大名山老四，遠眺蘭陽平原海灣，順訪熱門?茶山"},"geometry":{"type":"Point","coordinates":[121.72979,24.85921]}},
{"type":"Feature","properties":{"POINTNAME":"鵲子山","LEVEL":"SHM","COUNTYNAME":"宜蘭縣礁溪鄉","HEIGHT":"679","NOTE":"鵠仔山、鴻仔山、礁溪富士山，可見蘭陽平原及龜山島"},"geometry":{"type":"Point","coordinates":[121.76760,24.85022]}},
{"type":"Feature","properties":{"POINTNAME":"三星山","LEVEL":"SHM","COUNTYNAME":"宜蘭縣大同鄉、南澳鄉","HEIGHT":"2352","NOTE":"山區潮濕多雨，終年雲霧飄渺，太平山森林遊樂區最高峰"},"geometry":{"type":"Point","coordinates":[121.56405,24.50922]}},
{"type":"Feature","properties":{"POINTNAME":"卡拉寶山","LEVEL":"SHM","COUNTYNAME":"花蓮縣秀林鄉","HEIGHT":"2395","NOTE":"空巴尾山，南麓卡拉寶部落，昔為太魯閣戰爭時古戰場"},"geometry":{"type":"Point","coordinates":[121.39944,24.17743]}},
{"type":"Feature","properties":{"POINTNAME":"立霧山","LEVEL":"SHM","COUNTYNAME":"花蓮縣秀林鄉","HEIGHT":"1272","NOTE":"崇德山，太魯閣族活動領域，近年同禮部落推展體驗活動"},"geometry":{"type":"Point","coordinates":[121.64201,24.17812]}},
{"type":"Feature","properties":{"POINTNAME":"初音山","LEVEL":"SHM","COUNTYNAME":"花蓮縣吉安鄉、秀林鄉","HEIGHT":"906","NOTE":"初英山，位在奇萊東伸支脈尾稜，俯瞰花蓮，遠眺太平洋"},"geometry":{"type":"Point","coordinates":[121.53151,23.97078]}},
{"type":"Feature","properties":{"POINTNAME":"壽豐鯉魚山","LEVEL":"SHM","COUNTYNAME":"花蓮縣壽豐鄉","HEIGHT":"599","NOTE":"山容俊秀獨立，宛如鯉魚蜷臥，步道規劃完善，林木蒼鬱"},"geometry":{"type":"Point","coordinates":[121.52078,23.91909]}},
{"type":"Feature","properties":{"POINTNAME":"月眉山","LEVEL":"SHM","COUNTYNAME":"花蓮縣壽豐鄉","HEIGHT":"611","NOTE":"米棧山，稜上視野佳，遠眺中央山脈群峰，俯瞰縱谷景觀"},"geometry":{"type":"Point","coordinates":[121.55215,23.82550]}},
{"type":"Feature","properties":{"POINTNAME":"八里灣山","LEVEL":"SHM","COUNTYNAME":"花蓮縣豐濱鄉、瑞穗鄉","HEIGHT":"922","NOTE":"貓公山、貓公富士山、吉拉雅山，當地阿美族人的聖山"},"geometry":{"type":"Point","coordinates":[121.48910,23.54475]}},
{"type":"Feature","properties":{"POINTNAME":"萬人山","LEVEL":"SHM","COUNTYNAME":"花蓮縣富里鄉","HEIGHT":"886","NOTE":"位在六十石山金針花區，山名源自山腳，阿美族萬寧部落"},"geometry":{"type":"Point","coordinates":[121.31685,23.23255]}},
{"type":"Feature","properties":{"POINTNAME":"都蘭山","LEVEL":"SHM","COUNTYNAME":"臺東縣東河鄉、延平鄉","HEIGHT":"1187","NOTE":"都巒山、美人山、台東富士山，當地卑南、阿美族聖山"},"geometry":{"type":"Point","coordinates":[121.18845,22.89512]}},
{"type":"Feature","properties":{"POINTNAME":"太麻里山","LEVEL":"SHM","COUNTYNAME":"臺東縣金峰鄉、太麻里鄉","HEIGHT":"1337","NOTE":"雙乳山、金針山，山頂有360度視野，可迎接太平洋曙光"},"geometry":{"type":"Point","coordinates":[120.95262,22.64314]}},
{"type":"Feature","properties":{"POINTNAME":"加奈美山","LEVEL":"SHM","COUNTYNAME":"臺東縣大武鄉","HEIGHT":"779","NOTE":"甘那壁山、加拿美山，峰頂緊臨太平洋岸，原始氣氛濃厚"},"geometry":{"type":"Point","coordinates":[120.91017,22.43220]}},
{"type":"Feature","properties":{"POINTNAME":"巴塱衛山","LEVEL":"SHM","COUNTYNAME":"臺東縣大武鄉","HEIGHT":"326","NOTE":"排灣族語「拿棒子打」，山頂寬闊，距海岸僅1.45公里"},"geometry":{"type":"Point","coordinates":[120.87902,22.32259]}},
{"type":"Feature","properties":{"POINTNAME":"紅頭山","LEVEL":"SHM","COUNTYNAME":"臺東縣蘭嶼鄉","HEIGHT":"548","NOTE":"達悟族語Ji-kakurinam，近似熱帶雨林生態，物種繁多"},"geometry":{"type":"Point","coordinates":[121.53471,22.05304]}},
{"type":"Feature","properties":{"POINTNAME":"雲臺山","LEVEL":"SHM","COUNTYNAME":"連江縣南竿鄉","HEIGHT":"248","NOTE":"煙台山，馬祖防衛司令部所在，天晴可眺望對岸北茭半島"},"geometry":{"type":"Point","coordinates":[119.92345,26.15029]}},
{"type":"Feature","properties":{"POINTNAME":"太武山","LEVEL":"SHM","COUNTYNAME":"金門縣金湖鎮","HEIGHT":"253","NOTE":"仙山、大山，金門第一高峰，山頂有「毋忘在莒」勒石"},"geometry":{"type":"Point","coordinates":[118.41487,24.46353]}},
{"type":"Feature","properties":{"POINTNAME":"蛇頭山","LEVEL":"SHM","COUNTYNAME":"澎湖縣馬公市","HEIGHT":"20","NOTE":"風櫃尾，玄武岩熔岩台地，扼守馬公港咽喉，昔日古戰場"},"geometry":{"type":"Point","coordinates":[119.54811,23.54958]}}
]}