{"type":"FeatureCollection","features":[
{"type":"Feature","properties":{"PAGE":"1147","MOUNTAINNAME":"玉山","POINTNAME":"新高山","LEVEL":"Level1","NUMBER":"","COUNTYNAME":"嘉義縣","TOWNNAME":"","TW97_X":"244806.455","TW97_Y":"2596535.633","HEIGHT":"3952.382","_id":111731013},"geometry":{"type":"Point","coordinates":[120.949159123634,23.47177520256]}}
,
{"type":"Feature","properties":{"PAGE":"1146","MOUNTAINNAME":"玉山","POINTNAME":"玉山","LEVEL":"Level3","NUMBER":"內補357","COUNTYNAME":"南投縣","TOWNNAME":"","TW97_X":"244875.472","TW97_Y":"2596485.642","HEIGHT":"3944.757","_id":111731014},"geometry":{"type":"Point","coordinates":[120.949834918303,23.471323994618]}}
,
{"type":"Feature","properties":{"PAGE":"2103","MOUNTAINNAME":"梨山","POINTNAME":"雪山","LEVEL":"Level1","NUMBER":"","COUNTYNAME":"臺中市","TOWNNAME":"","TW97_X":"272679.921","TW97_Y":"2697710.422","HEIGHT":"3885.789","_id":111731015},"geometry":{"type":"Point","coordinates":[121.223586237653,24.3851893885028]}}
,
{"type":"Feature","properties":{"PAGE":"1151","MOUNTAINNAME":"玉山","POINTNAME":"北北峰","LEVEL":"Level3","NUMBER":"新中橫補5","COUNTYNAME":"南投縣","TOWNNAME":"","TW97_X":"244984.001","TW97_Y":"2598869.61","HEIGHT":"3833.234","_id":111731016},"geometry":{"type":"Point","coordinates":[120.950889360639,23.4928519172921]}}
,
{"type":"Feature","properties":{"PAGE":"1966","MOUNTAINNAME":"環山","POINTNAME":"南湖大山","LEVEL":"Level1","NUMBER":"","COUNTYNAME":"宜蘭縣","TOWNNAME":"大同鄉南山村","TW97_X":"293746.759","TW97_Y":"2695369.437","HEIGHT":"3741.595","_id":111731017},"geometry":{"type":"Point","coordinates":[121.431194988579,24.363604205781]}}
,
{"type":"Feature","properties":{"PAGE":"1142","MOUNTAINNAME":"玉山","POINTNAME":"南山","LEVEL":"Level3","NUMBER":"7541","COUNTYNAME":"嘉義縣","TOWNNAME":"吳鳳鄉","TW97_X":"245432.526","TW97_Y":"2593106.328","HEIGHT":"3711.189","_id":111731018},"geometry":{"type":"Point","coordinates":[120.955298308941,23.4408098432314]}}
,
{"type":"Feature","properties":{"PAGE":"1956","MOUNTAINNAME":"環山","POINTNAME":"中央尖山","LEVEL":"Level3","NUMBER":"6015","COUNTYNAME":"臺中市","TOWNNAME":"","TW97_X":"291414.575","TW97_Y":"2689649.624","HEIGHT":"3704.952","_id":111731019},"geometry":{"type":"Point","coordinates":[121.408042550053,24.3120241216449]}}
,
{"type":"Feature","properties":{"PAGE":"2108","MOUNTAINNAME":"梨山","POINTNAME":"羽利羽利山","LEVEL":"Level3","NUMBER":"6305","COUNTYNAME":"苗栗縣","TOWNNAME":"","TW97_X":"273550.506","TW97_Y":"2701181.012","HEIGHT":"3703.38","_id":111731020},"geometry":{"type":"Point","coordinates":[121.23222598987,24.4165124291765]}}
,
{"type":"Feature","properties":{"PAGE":"1185","MOUNTAINNAME":"卑南主山","POINTNAME":"關山","LEVEL":"Level2","NUMBER":"1674","COUNTYNAME":"臺東縣","TOWNNAME":"","TW97_X":"240136.261","TW97_Y":"2569748.334","HEIGHT":"3668.036","_id":111731021},"geometry":{"type":"Point","coordinates":[120.903616338883,23.2298565082409]}}
,
{"type":"Feature","properties":{"PAGE":"1913","MOUNTAINNAME":"秀姑巒山","POINTNAME":"東郡大山","LEVEL":"Level1","NUMBER":"","COUNTYNAME":"南投縣","TOWNNAME":"","TW97_X":"258566.571","TW97_Y":"2613894.788","HEIGHT":"3619.416","_id":111731022},"geometry":{"type":"Point","coordinates":[121.083959721364,23.6285152043209]}}
,
{"type":"Feature","properties":{"PAGE":"2013","MOUNTAINNAME":"大禹嶺","POINTNAME":"奇萊山北峰","LEVEL":"Level1","NUMBER":"","COUNTYNAME":"花蓮縣","TOWNNAME":"松雪樓","TW97_X":"283176.681","TW97_Y":"2668375.391","HEIGHT":"3606.972","_id":111731023},"geometry":{"type":"Point","coordinates":[121.326389004849,24.120132407131]}}
,
{"type":"Feature","properties":{"PAGE":"1115","MOUNTAINNAME":"玉山","POINTNAME":"紅葉山","LEVEL":"Level3","NUMBER":"7529","COUNTYNAME":"臺東縣","TOWNNAME":"海端鄉","TW97_X":"248396.038","TW97_Y":"2575969.615","HEIGHT":"3603.086","_id":111731024},"geometry":{"type":"Point","coordinates":[120.984320285721,23.2860659943379]}}
,
{"type":"Feature","properties":{"PAGE":"2097","MOUNTAINNAME":"梨山","POINTNAME":"大劍山","LEVEL":"Level3","NUMBER":"6610","COUNTYNAME":"臺中市","TOWNNAME":"佳陽新村北方山頂","TW97_X":"269515.484","TW97_Y":"2693002.903","HEIGHT":"3593.788","_id":111731025},"geometry":{"type":"Point","coordinates":[121.192326045418,24.3427277168496]}}
,
{"type":"Feature","properties":{"PAGE":"2009","MOUNTAINNAME":"大禹嶺","POINTNAME":"奇萊主山","LEVEL":"Level3","NUMBER":"5984","COUNTYNAME":"花蓮縣","TOWNNAME":"木瓜林區","TW97_X":"282035.771","TW97_Y":"2664790.863","HEIGHT":"3560.282","_id":111731026},"geometry":{"type":"Point","coordinates":[121.315085777793,24.0877902440611]}}
,
{"type":"Feature","properties":{"PAGE":"1971","MOUNTAINNAME":"環山","POINTNAME":"南湖北山","LEVEL":"Level3","NUMBER":"6330","COUNTYNAME":"宜蘭縣","TOWNNAME":"大同鄉南山村","TW97_X":"293517.154","TW97_Y":"2697790.284","HEIGHT":"3536.002","_id":111731027},"geometry":{"type":"Point","coordinates":[121.429005644257,24.3854680871645]}}
,
{"type":"Feature","properties":{"PAGE":"2094","MOUNTAINNAME":"梨山","POINTNAME":"大雪山","LEVEL":"Level2","NUMBER":"1545","COUNTYNAME":"臺中市","TOWNNAME":"和平鄉","TW97_X":"261468.676","TW97_Y":"2691864.928","HEIGHT":"3529.657","_id":111731028},"geometry":{"type":"Point","coordinates":[121.113015407411,24.332532595947]}}
,
{"type":"Feature","properties":{"PAGE":"1845","MOUNTAINNAME":"玉里山","POINTNAME":"三叉山","LEVEL":"Level1","NUMBER":"","COUNTYNAME":"臺東縣","TOWNNAME":"","TW97_X":"252103.809","TW97_Y":"2577397.536","HEIGHT":"3496.137","_id":111731029},"geometry":{"type":"Point","coordinates":[121.020568007122,23.2989600847174]}}
,
{"type":"Feature","properties":{"PAGE":"2114","MOUNTAINNAME":"梨山","POINTNAME":"大霸尖山","LEVEL":"Level2","NUMBER":"1540","COUNTYNAME":"新竹縣","TOWNNAME":"五峰鄉觀霧村","TW97_X":"275330.034","TW97_Y":"2705948.74","HEIGHT":"3491.514","_id":111731030},"geometry":{"type":"Point","coordinates":[121.249858187793,24.4595320291552]}}
,
{"type":"Feature","properties":{"PAGE":"1948","MOUNTAINNAME":"環山","POINTNAME":"無名山","LEVEL":"Level2","NUMBER":"1450","COUNTYNAME":"花蓮縣","TOWNNAME":"","TW97_X":"288230.021","TW97_Y":"2683561.84","HEIGHT":"3450.657","_id":111731031},"geometry":{"type":"Point","coordinates":[121.376504764541,24.257138498585]}}
,
{"type":"Feature","properties":{"PAGE":"1962","MOUNTAINNAME":"環山","POINTNAME":"南湖南山","LEVEL":"Level3","NUMBER":"6339","COUNTYNAME":"宜蘭縣","TOWNNAME":"","TW97_X":"293597.377","TW97_Y":"2693220.936","HEIGHT":"3449.428","_id":111731032},"geometry":{"type":"Point","coordinates":[121.429657133827,24.3442098438508]}}
,
{"type":"Feature","properties":{"PAGE":"1860","MOUNTAINNAME":"玉里山","POINTNAME":"柏南山","LEVEL":"Level1","NUMBER":"1680","COUNTYNAME":"花蓮縣","TOWNNAME":"玉里鎮","TW97_X":"266940.758","TW97_Y":"2598068.773","HEIGHT":"3443.143","_id":111731033},"geometry":{"type":"Point","coordinates":[121.165854268753,23.4855397459189]}}
,
{"type":"Feature","properties":{"PAGE":"2024","MOUNTAINNAME":"大禹嶺","POINTNAME":"北合歡山","LEVEL":"Level2","NUMBER":"1451","COUNTYNAME":"南投縣","TOWNNAME":"","TW97_X":"277780.05","TW97_Y":"2675358.298","HEIGHT":"3422.246","_id":111731034},"geometry":{"type":"Point","coordinates":[121.273432123027,24.1832871303017]}}
,
{"type":"Feature","properties":{"PAGE":"2015","MOUNTAINNAME":"大禹嶺","POINTNAME":"合歡山","LEVEL":"Level3","NUMBER":"6388","COUNTYNAME":"南投縣","TOWNNAME":"","TW97_X":"276729.652","TW97_Y":"2671051.897","HEIGHT":"3417.404","_id":111731035},"geometry":{"type":"Point","coordinates":[121.263013754909,24.1444217168801]}}
,
{"type":"Feature","properties":{"PAGE":"1140","MOUNTAINNAME":"玉山","POINTNAME":"南玉山","LEVEL":"Level2","NUMBER":"1685","COUNTYNAME":"高雄市","TOWNNAME":"桃源鄉","TW97_X":"241497.966","TW97_Y":"2592026.986","HEIGHT":"3382.801","_id":111731036},"geometry":{"type":"Point","coordinates":[120.916797047915,23.4310473973699]}}
,
{"type":"Feature","properties":{"PAGE":"2032","MOUNTAINNAME":"大禹嶺","POINTNAME":"畢祿山","LEVEL":"Level3","NUMBER":"6368","COUNTYNAME":"花蓮縣","TOWNNAME":"秀林鄉關原村","TW97_X":"284433.635","TW97_Y":"2678926.496","HEIGHT":"3371.348","_id":111731037},"geometry":{"type":"Point","coordinates":[121.339006076462,24.2153734193362]}}
,
{"type":"Feature","properties":{"PAGE":"1922","MOUNTAINNAME":"萬大","POINTNAME":"卓社大山","LEVEL":"Level2","NUMBER":"1455","COUNTYNAME":"南投縣","TOWNNAME":"仁愛鄉法治村","TW97_X":"260970.104","TW97_Y":"2636913.081","HEIGHT":"3368.814","_id":111731038},"geometry":{"type":"Point","coordinates":[121.1076870215,23.8363522744952]}}
,
{"type":"Feature","properties":{"PAGE":"2005","MOUNTAINNAME":"大禹嶺","POINTNAME":"奇萊主山南","LEVEL":"Level2","NUMBER":"1469","COUNTYNAME":"南投縣","TOWNNAME":"仁愛鄉天池村","TW97_X":"277626.055","TW97_Y":"2662037.126","HEIGHT":"3353.024","_id":111731039},"geometry":{"type":"Point","coordinates":[121.271662322794,24.0630089897939]}}
,
{"type":"Feature","properties":{"PAGE":"1889","MOUNTAINNAME":"池南","POINTNAME":"能高南峰","LEVEL":"Level2","NUMBER":"1453","COUNTYNAME":"南投縣","TOWNNAME":"仁愛鄉","TW97_X":"277471.472","TW97_Y":"2651422.181","HEIGHT":"3349.436","_id":111731040},"geometry":{"type":"Point","coordinates":[121.269942090144,23.9671647960079]}}
,
{"type":"Feature","properties":{"PAGE":"2072","MOUNTAINNAME":"霧社","POINTNAME":"白狗大山","LEVEL":"Level1","NUMBER":"","COUNTYNAME":"臺中市","TOWNNAME":"和平鄉青山村","TW97_X":"260239.647","TW97_Y":"2677680.277","HEIGHT":"3341.508","_id":111731041},"geometry":{"type":"Point","coordinates":[121.10080316527,24.2044648637692]}}
,
{"type":"Feature","properties":{"PAGE":"1861","MOUNTAINNAME":"玉里山","POINTNAME":"八通關大山","LEVEL":"Level3","NUMBER":"新中橫補六","COUNTYNAME":"南投縣","TOWNNAME":"","TW97_X":"250150.832","TW97_Y":"2598771.277","HEIGHT":"3334.921","_id":111731042},"geometry":{"type":"Point","coordinates":[121.001476756154,23.4919716879514]}}
,
{"type":"Feature","properties":{"PAGE":"1979","MOUNTAINNAME":"環山","POINTNAME":"桃山","LEVEL":"Level3","NUMBER":"6327","COUNTYNAME":"臺中市","TOWNNAME":"和平鄉","TW97_X":"280087.539","TW97_Y":"2703176.075","HEIGHT":"3324.994","_id":111731043},"geometry":{"type":"Point","coordinates":[121.296727657524,24.4344130829581]}}
,
{"type":"Feature","properties":{"PAGE":"2089","MOUNTAINNAME":"梨山","POINTNAME":"佳陽山","LEVEL":"Level2","NUMBER":"1462","COUNTYNAME":"臺中市","TOWNNAME":"梨山鄉佳陽村","TW97_X":"268252.614","TW97_Y":"2689201.363","HEIGHT":"3314.147","_id":111731044},"geometry":{"type":"Point","coordinates":[121.179832012794,24.308418434363]}}
,
{"type":"Feature","properties":{"PAGE":"2102","MOUNTAINNAME":"梨山","POINTNAME":"火石山","LEVEL":"Level3","NUMBER":"6613","COUNTYNAME":"苗栗縣","TOWNNAME":"","TW97_X":"266928.606","TW97_Y":"2697538.16","HEIGHT":"3309.562","_id":111731045},"geometry":{"type":"Point","coordinates":[121.166886031365,24.3837070829942]}}
,
{"type":"Feature","properties":{"PAGE":"1978","MOUNTAINNAME":"環山","POINTNAME":"玉羅府山","LEVEL":"Level3","NUMBER":"6317","COUNTYNAME":"臺中市","TOWNNAME":"和平鄉","TW97_X":"278388.664","TW97_Y":"2703004.217","HEIGHT":"3302.648","_id":111731046},"geometry":{"type":"Point","coordinates":[121.279969842533,24.4328933225957]}}
,
{"type":"Feature","properties":{"PAGE":"2117","MOUNTAINNAME":"梨山","POINTNAME":"江澤山","LEVEL":"Level3","NUMBER":"6251","COUNTYNAME":"新竹縣","TOWNNAME":"五峰鄉","TW97_X":"273864.976","TW97_Y":"2707302.432","HEIGHT":"3297.327","_id":111731047},"geometry":{"type":"Point","coordinates":[121.235429519501,24.4717775971133]}}
,
{"type":"Feature","properties":{"PAGE":"1162","MOUNTAINNAME":"卑南主山","POINTNAME":"卑南主山","LEVEL":"Level1","NUMBER":"","COUNTYNAME":"高雄市","TOWNNAME":"桃源鄉寶山村","TW97_X":"236280.233","TW97_Y":"2550161.55","HEIGHT":"3294.585","_id":111731048},"geometry":{"type":"Point","coordinates":[120.866112942797,23.0529500610966]}}
,
{"type":"Feature","properties":{"PAGE":"2098","MOUNTAINNAME":"梨山","POINTNAME":"志佳陽山","LEVEL":"Level3","NUMBER":"6303","COUNTYNAME":"臺中市","TOWNNAME":"","TW97_X":"274670.165","TW97_Y":"2694876.154","HEIGHT":"3288.848","_id":111731049},"geometry":{"type":"Point","coordinates":[121.243157661409,24.3595684915606]}}
,
{"type":"Feature","properties":{"PAGE":"1929","MOUNTAINNAME":"萬大","POINTNAME":"干卓萬山","LEVEL":"Level2","NUMBER":"1460","COUNTYNAME":"南投縣","TOWNNAME":"","TW97_X":"263325.678","TW97_Y":"2641508.356","HEIGHT":"3283.771","_id":111731050},"geometry":{"type":"Point","coordinates":[121.130851922319,23.8778282977642]}}
,
{"type":"Feature","properties":{"PAGE":"2008","MOUNTAINNAME":"大禹嶺","POINTNAME":"太魯閣大山","LEVEL":"Level2","NUMBER":"1463","COUNTYNAME":"花蓮縣","TOWNNAME":"","TW97_X":"291976.085","TW97_Y":"2664050.768","HEIGHT":"3282.911","_id":111731051},"geometry":{"type":"Point","coordinates":[121.412829950719,24.0808750661543]}}
,
{"type":"Feature","properties":{"PAGE":"1133","MOUNTAINNAME":"玉山","POINTNAME":"馬江子山","LEVEL":"Level3","NUMBER":"7530","COUNTYNAME":"高雄市","TOWNNAME":"","TW97_X":"248974.841","TW97_Y":"2587826.441","HEIGHT":"3279.464","_id":111731052},"geometry":{"type":"Point","coordinates":[120.989970402333,23.3931373442134]}}
,
{"type":"Feature","properties":{"PAGE":"2036","MOUNTAINNAME":"大禹嶺","POINTNAME":"鈴鳴山","LEVEL":"Level3","NUMBER":"6373","COUNTYNAME":"臺中市","TOWNNAME":"","TW97_X":"284880.677","TW97_Y":"2682338.854","HEIGHT":"3272.343","_id":111731053},"geometry":{"type":"Point","coordinates":[121.343489892702,24.2461741195731]}}
,
{"type":"Feature","properties":{"PAGE":"1893","MOUNTAINNAME":"池南","POINTNAME":"能高山","LEVEL":"Level3","NUMBER":"5957","COUNTYNAME":"南投縣","TOWNNAME":"仁愛鄉霧社林區26林班","TW97_X":"275651.408","TW97_Y":"2654404.485","HEIGHT":"3262.229","_id":111731054},"geometry":{"type":"Point","coordinates":[121.252110197668,23.9941238662626]}}
,
{"type":"Feature","properties":{"PAGE":"1926","MOUNTAINNAME":"萬大","POINTNAME":"火山","LEVEL":"Level3","NUMBER":"5966","COUNTYNAME":"南投縣","TOWNNAME":"仁愛鄉法治村","TW97_X":"268068.082","TW97_Y":"2638836.798","HEIGHT":"3257.987","_id":111731055},"geometry":{"type":"Point","coordinates":[121.177387098821,23.853658402921]}}
,
{"type":"Feature","properties":{"PAGE":"2018","MOUNTAINNAME":"大禹嶺","POINTNAME":"屏風山","LEVEL":"Level3","NUMBER":"6378","COUNTYNAME":"花蓮縣","TOWNNAME":"","TW97_X":"284021.668","TW97_Y":"2671803.656","HEIGHT":"3249.776","_id":111731056},"geometry":{"type":"Point","coordinates":[121.334782377051,24.1510690199003]}}
,
{"type":"Feature","properties":{"PAGE":"1175","MOUNTAINNAME":"卑南主山","POINTNAME":"小關山","LEVEL":"Level2","NUMBER":"1668","COUNTYNAME":"高雄市","TOWNNAME":"","TW97_X":"236486.07","TW97_Y":"2561287.199","HEIGHT":"3248.737","_id":111731057},"geometry":{"type":"Point","coordinates":[120.868023508509,23.1534226301606]}}
,
{"type":"Feature","properties":{"PAGE":"1927","MOUNTAINNAME":"萬大","POINTNAME":"牧山","LEVEL":"Level3","NUMBER":"5909","COUNTYNAME":"南投縣","TOWNNAME":"仁愛鄉法治村武界第十五林班","TW97_X":"265488.856","TW97_Y":"2640054.355","HEIGHT":"3240.907","_id":111731058},"geometry":{"type":"Point","coordinates":[121.152077927761,23.8646796313662]}}
,
{"type":"Feature","properties":{"PAGE":"1150","MOUNTAINNAME":"玉山","POINTNAME":"前山","LEVEL":"Level3","NUMBER":"內補359","COUNTYNAME":"嘉義縣","TOWNNAME":"","TW97_X":"240760.242","TW97_Y":"2597157.926","HEIGHT":"3238.801","_id":111731059},"geometry":{"type":"Point","coordinates":[120.909545958492,23.4773766573165]}}
,
{"type":"Feature","properties":{"PAGE":"2019","MOUNTAINNAME":"大禹嶺","POINTNAME":"石門山","LEVEL":"Level3","NUMBER":"6389","COUNTYNAME":"南投縣","TOWNNAME":"","TW97_X":"278091.433","TW97_Y":"2672140.277","HEIGHT":"3237.336","_id":111731060},"geometry":{"type":"Point","coordinates":[121.276434393157,24.1542253124494]}}
,
{"type":"Feature","properties":{"PAGE":"1109","MOUNTAINNAME":"玉山","POINTNAME":"大關山","LEVEL":"Level3","NUMBER":"7535","COUNTYNAME":"高雄市","TOWNNAME":"臺東縣、高雄市縣界","TW97_X":"243158.943","TW97_Y":"2572391.224","HEIGHT":"3221.899","_id":111731061},"geometry":{"type":"Point","coordinates":[120.933140606667,23.2537382578124]}}
,
{"type":"Feature","properties":{"PAGE":"1964","MOUNTAINNAME":"環山","POINTNAME":"麻眉山","LEVEL":"Level3","NUMBER":"6336","COUNTYNAME":"花蓮縣","TOWNNAME":"","TW97_X":"298446.903","TW97_Y":"2693892.105","HEIGHT":"3210.979","_id":111731062},"geometry":{"type":"Point","coordinates":[121.477471256858,24.3501268285397]}}
,
{"type":"Feature","properties":{"PAGE":"1972","MOUNTAINNAME":"環山","POINTNAME":"明間山","LEVEL":"Level3","NUMBER":"6304","COUNTYNAME":"臺中市","TOWNNAME":"和平鄉","TW97_X":"276768.675","TW97_Y":"2698303.296","HEIGHT":"3200.942","_id":111731063},"geometry":{"type":"Point","coordinates":[121.26390534706,24.3904776016197]}}
,
{"type":"Feature","properties":{"PAGE":"2000","MOUNTAINNAME":"大禹嶺","POINTNAME":"能高","LEVEL":"Level3","NUMBER":"5942","COUNTYNAME":"南投縣","TOWNNAME":"仁愛鄉霧社林區第二七林班","TW97_X":"278252.234","TW97_Y":"2659615.052","HEIGHT":"3183.921","_id":111731064},"geometry":{"type":"Point","coordinates":[121.277772771164,24.0411281113908]}}
,
{"type":"Feature","properties":{"PAGE":"1112","MOUNTAINNAME":"玉山","POINTNAME":"關山嶺","LEVEL":"Level2","NUMBER":"1683","COUNTYNAME":"臺東縣","TOWNNAME":"","TW97_X":"245023.229","TW97_Y":"2574497.875","HEIGHT":"3175.6","_id":111731065},"geometry":{"type":"Point","coordinates":[120.951353838681,23.2727688600403]}}
,
{"type":"Feature","properties":{"PAGE":"1180","MOUNTAINNAME":"卑南主山","POINTNAME":"海諾南山","LEVEL":"Level3","NUMBER":"7217","COUNTYNAME":"臺東縣","TOWNNAME":"","TW97_X":"240093.584","TW97_Y":"2565043.467","HEIGHT":"3174.555","_id":111731066},"geometry":{"type":"Point","coordinates":[120.903229919791,23.1873691672291]}}
,
{"type":"Feature","properties":{"PAGE":"2096","MOUNTAINNAME":"梨山","POINTNAME":"中雪山","LEVEL":"Level3","NUMBER":"6611","COUNTYNAME":"苗栗縣","TOWNNAME":"泰安鄉","TW97_X":"257092.222","TW97_Y":"2692495.892","HEIGHT":"3172.761","_id":111731067},"geometry":{"type":"Point","coordinates":[121.069891814928,24.3382556480926]}}
,
{"type":"Feature","properties":{"PAGE":"1949","MOUNTAINNAME":"環山","POINTNAME":"捫山","LEVEL":"Level2","NUMBER":"1467","COUNTYNAME":"臺中市","TOWNNAME":"和平鄉","TW97_X":"280634.379","TW97_Y":"2683915.649","HEIGHT":"3168.267","_id":111731068},"geometry":{"type":"Point","coordinates":[121.301708249556,24.2604998393078]}}
,
{"type":"Feature","properties":{"PAGE":"1955","MOUNTAINNAME":"環山","POINTNAME":"甘薯峰","LEVEL":"Level3","NUMBER":"6362","COUNTYNAME":"臺中市","TOWNNAME":"","TW97_X":"288742.789","TW97_Y":"2687445.235","HEIGHT":"3157.764","_id":111731069},"geometry":{"type":"Point","coordinates":[121.381659359229,24.2921891700917]}}
,
{"type":"Feature","properties":{"PAGE":"2067","MOUNTAINNAME":"霧社","POINTNAME":"西合歡山","LEVEL":"Level3","NUMBER":"6390","COUNTYNAME":"南投縣","TOWNNAME":"仁愛鄉","TW97_X":"274015.331","TW97_Y":"2674920.786","HEIGHT":"3144.632","_id":111731070},"geometry":{"type":"Point","coordinates":[121.236369918839,24.1793986757275]}}
,
{"type":"Feature","properties":{"PAGE":"1970","MOUNTAINNAME":"環山","POINTNAME":"夜珍加羅惠","LEVEL":"Level3","NUMBER":"6325","COUNTYNAME":"臺中市","TOWNNAME":"和平鄉","TW97_X":"291517.645","TW97_Y":"2697400.864","HEIGHT":"3141.293","_id":111731071},"geometry":{"type":"Point","coordinates":[121.409282944252,24.3820065971951]}}
,
{"type":"Feature","properties":{"PAGE":"1983","MOUNTAINNAME":"環山","POINTNAME":"加留坪","LEVEL":"Level2","NUMBER":"1549","COUNTYNAME":"宜蘭縣","TOWNNAME":"大同鄉南山村","TW97_X":"281745.052","TW97_Y":"2705100.242","HEIGHT":"3132.994","_id":111731072},"geometry":{"type":"Point","coordinates":[121.313117015694,24.4517532244806]}}
,
{"type":"Feature","properties":{"PAGE":"1110","MOUNTAINNAME":"玉山","POINTNAME":"庫哈諾辛山","LEVEL":"Level3","NUMBER":"7534","COUNTYNAME":"高雄市","TOWNNAME":"桃源鄉","TW97_X":"238944.079","TW97_Y":"2573590.432","HEIGHT":"3114.832","_id":111731073},"geometry":{"type":"Point","coordinates":[120.891938983783,23.2645446399204]}}
,
{"type":"Feature","properties":{"PAGE":"2115","MOUNTAINNAME":"梨山","POINTNAME":"加利山","LEVEL":"Level3","NUMBER":"6619","COUNTYNAME":"苗栗縣","TOWNNAME":"五峰鄉","TW97_X":"271088.612","TW97_Y":"2706136.159","HEIGHT":"3112.229","_id":111731074},"geometry":{"type":"Point","coordinates":[121.20802336085,24.4612875823002]}}
,
{"type":"Feature","properties":{"PAGE":"1880","MOUNTAINNAME":"池南","POINTNAME":"白石山","LEVEL":"Level3","NUMBER":"5955","COUNTYNAME":"花蓮縣","TOWNNAME":"","TW97_X":"277148.277","TW97_Y":"2645016.739","HEIGHT":"3109.663","_id":111731075},"geometry":{"type":"Point","coordinates":[121.266647462256,23.9093322741395]}}
,
{"type":"Feature","properties":{"PAGE":"2012","MOUNTAINNAME":"大禹嶺","POINTNAME":"苫原","LEVEL":"Level3","NUMBER":"5986","COUNTYNAME":"花蓮縣","TOWNNAME":"秀林鄉","TW97_X":"288645.498","TW97_Y":"2666882.052","HEIGHT":"3105.694","_id":111731076},"geometry":{"type":"Point","coordinates":[121.380150019658,24.1065243048577]}}
,
{"type":"Feature","properties":{"PAGE":"2010","MOUNTAINNAME":"大禹嶺","POINTNAME":"怕托魯山","LEVEL":"Level3","NUMBER":"5985","COUNTYNAME":"花蓮縣","TOWNNAME":"秀林鄉","TW97_X":"296607.871","TW97_Y":"2666320.758","HEIGHT":"3101.284","_id":111731077},"geometry":{"type":"Point","coordinates":[121.458454865888,24.1012414076589]}}
,
{"type":"Feature","properties":{"PAGE":"984","MOUNTAINNAME":"太麻里","POINTNAME":"北大武山","LEVEL":"Level1","NUMBER":"","COUNTYNAME":"屏東縣","TOWNNAME":"大武村","TW97_X":"224645.875","TW97_Y":"2503213.855","HEIGHT":"3091.968","_id":111731078},"geometry":{"type":"Point","coordinates":[120.753342986288,22.6288378333308]}}
,
{"type":"Feature","properties":{"PAGE":"1859","MOUNTAINNAME":"玉里山","POINTNAME":"尖山","LEVEL":"Level2","NUMBER":"","COUNTYNAME":"花蓮縣","TOWNNAME":"卓溪鄉卓溪村","TW97_X":"251909.406","TW97_Y":"2589451.854","HEIGHT":"3069.879","_id":111731079},"geometry":{"type":"Point","coordinates":[121.01868264811,23.4078144283581]}}
,
{"type":"Feature","properties":{"PAGE":"2014","MOUNTAINNAME":"大禹嶺","POINTNAME":"立霧主山","LEVEL":"Level3","NUMBER":"5981","COUNTYNAME":"花蓮縣","TOWNNAME":"秀林鄉","TW97_X":"294474.272","TW97_Y":"2669135.025","HEIGHT":"3069.541","_id":111731080},"geometry":{"type":"Point","coordinates":[121.437554736327,24.1267133469701]}}
,
{"type":"Feature","properties":{"PAGE":"1885","MOUNTAINNAME":"池南","POINTNAME":"知亞平山","LEVEL":"Level3","NUMBER":"5956","COUNTYNAME":"南投縣","TOWNNAME":"仁愛鄉埔里林區與木瓜林區交界","TW97_X":"276853.401","TW97_Y":"2648388.998","HEIGHT":"3060.015","_id":111731081},"geometry":{"type":"Point","coordinates":[121.263813092523,23.9397872145255]}}
,
{"type":"Feature","properties":{"PAGE":"1128","MOUNTAINNAME":"玉山","POINTNAME":"玉德山","LEVEL":"Level3","NUMBER":"7527","COUNTYNAME":"高雄市","TOWNNAME":"","TW97_X":"242933.323","TW97_Y":"2533732.506","HEIGHT":"3045.254","_id":111731082},"geometry":{"type":"Point","coordinates":[120.93111363413,22.9046255622676]}}
,
{"type":"Feature","properties":{"PAGE":"1874","MOUNTAINNAME":"池南","POINTNAME":"安東軍山","LEVEL":"Level1","NUMBER":"","COUNTYNAME":"花蓮縣","TOWNNAME":"","TW97_X":"276273.117","TW97_Y":"2641157.719","HEIGHT":"3038.04","_id":111731083},"geometry":{"type":"Point","coordinates":[121.257982683007,23.8745016020899]}}
,
{"type":"Feature","properties":{"PAGE":"2029","MOUNTAINNAME":"大禹嶺","POINTNAME":"羊頭山","LEVEL":"Level3","NUMBER":"6354","COUNTYNAME":"花蓮縣","TOWNNAME":"秀林鄉慈恩村","TW97_X":"287746.925","TW97_Y":"2678346.457","HEIGHT":"3034.578","_id":111731084},"geometry":{"type":"Point","coordinates":[121.371610381175,24.2100600901762]}}
,
{"type":"Feature","properties":{"PAGE":"1888","MOUNTAINNAME":"池南","POINTNAME":"奇萊大山","LEVEL":"Level3","NUMBER":"6008","COUNTYNAME":"南投縣","TOWNNAME":"","TW97_X":"281260.45","TW97_Y":"2651155.986","HEIGHT":"3028.679","_id":111731085},"geometry":{"type":"Point","coordinates":[121.30716752149,23.9646912073383]}}
,
{"type":"Feature","properties":{"PAGE":"2095","MOUNTAINNAME":"梨山","POINTNAME":"斧碗山","LEVEL":"Level3","NUMBER":"6609","COUNTYNAME":"臺中市","TOWNNAME":"和平鄉梨山村","TW97_X":"265774.792","TW97_Y":"2692058.743","HEIGHT":"3000.144","_id":111731086},"geometry":{"type":"Point","coordinates":[121.155451058259,24.3342450430563]}}
,
{"type":"Feature","properties":{"PAGE":"2087","MOUNTAINNAME":"梨山","POINTNAME":"小雪山","LEVEL":"Level2","NUMBER":"1544","COUNTYNAME":"臺中市","TOWNNAME":"和平鄉","TW97_X":"253173.537","TW97_Y":"2688028.719","HEIGHT":"2997.186","_id":111731087},"geometry":{"type":"Point","coordinates":[121.031264412564,24.2979336611789]}}
,
{"type":"Feature","properties":{"PAGE":"1921","MOUNTAINNAME":"萬大","POINTNAME":"雙子山","LEVEL":"Level3","NUMBER":"5976","COUNTYNAME":"南投縣","TOWNNAME":"信義鄉巒大林區第五林班","TW97_X":"265344.655","TW97_Y":"2636858.5","HEIGHT":"2997.119","_id":111731088},"geometry":{"type":"Point","coordinates":[121.150628732542,23.835823438818]}}
,
{"type":"Feature","properties":{"PAGE":"2030","MOUNTAINNAME":"大禹嶺","POINTNAME":"武法奈尾山","LEVEL":"Level3","NUMBER":"6315","COUNTYNAME":"南投縣","TOWNNAME":"松泉崗","TW97_X":"278143.632","TW97_Y":"2678476.381","HEIGHT":"2986.906","_id":111731089},"geometry":{"type":"Point","coordinates":[121.277071569546,24.2114344893028]}}
,
{"type":"Feature","properties":{"PAGE":"1951","MOUNTAINNAME":"環山","POINTNAME":"茶岩山","LEVEL":"Level3","NUMBER":"6318","COUNTYNAME":"臺中市","TOWNNAME":"","TW97_X":"281896.513","TW97_Y":"2686331.118","HEIGHT":"2986.89","_id":111731090},"geometry":{"type":"Point","coordinates":[121.314192085925,24.2822841604052]}}
,
{"type":"Feature","properties":{"PAGE":"1974","MOUNTAINNAME":"環山","POINTNAME":"魔葉名病山","LEVEL":"Level3","NUMBER":"6321","COUNTYNAME":"宜蘭縣","TOWNNAME":"大同鄉四季村","TW97_X":"292982.215","TW97_Y":"2700528.191","HEIGHT":"2975.955","_id":111731091},"geometry":{"type":"Point","coordinates":[121.423814633058,24.4102030165971]}}
,
{"type":"Feature","properties":{"PAGE":"1914","MOUNTAINNAME":"萬大","POINTNAME":"卡社大山","LEVEL":"Level3","NUMBER":"5971","COUNTYNAME":"花蓮縣","TOWNNAME":"萬榮鄉","TW97_X":"271672.935","TW97_Y":"2631078.548","HEIGHT":"2946.759","_id":111731092},"geometry":{"type":"Point","coordinates":[121.212664136724,23.7835589342061]}}
,
{"type":"Feature","properties":{"PAGE":"2066","MOUNTAINNAME":"霧社","POINTNAME":"基隆山","LEVEL":"Level3","NUMBER":"6594","COUNTYNAME":"臺中市","TOWNNAME":"和平鄉博愛村","TW97_X":"255624.578","TW97_Y":"2674247.534","HEIGHT":"2938.445","_id":111731093},"geometry":{"type":"Point","coordinates":[121.055357232216,24.1734928151465]}}
,
{"type":"Feature","properties":{"PAGE":"1990","MOUNTAINNAME":"環山","POINTNAME":"南馬洋山","LEVEL":"Level3","NUMBER":"6300","COUNTYNAME":"新竹縣","TOWNNAME":"尖石鄉秀巒村","TW97_X":"277449.301","TW97_Y":"2710027.516","HEIGHT":"2932.909","_id":111731094},"geometry":{"type":"Point","coordinates":[121.270841492419,24.4963228073943]}}
,
{"type":"Feature","properties":{"PAGE":"966","MOUNTAINNAME":"美奈田主山","POINTNAME":"美奈田主山","LEVEL":"Level1","NUMBER":"","COUNTYNAME":"臺東縣","TOWNNAME":"","TW97_X":"249368.628","TW97_Y":"2541913.927","HEIGHT":"2931.209","_id":111731095},"geometry":{"type":"Point","coordinates":[120.993842007285,22.9785249213756]}}
,
{"type":"Feature","properties":{"PAGE":"1952","MOUNTAINNAME":"環山","POINTNAME":"三次山","LEVEL":"Level3","NUMBER":"6370","COUNTYNAME":"宜蘭縣","TOWNNAME":"","TW97_X":"294993.798","TW97_Y":"2686710.352","HEIGHT":"2919.083","_id":111731096},"geometry":{"type":"Point","coordinates":[121.44321434085,24.2853868143156]}}
,
{"type":"Feature","properties":{"PAGE":"2213","MOUNTAINNAME":"竹東","POINTNAME":"境界山","LEVEL":"Level3","NUMBER":"6236","COUNTYNAME":"新竹縣","TOWNNAME":"竹東林區","TW97_X":"271529.986","TW97_Y":"2710795.923","HEIGHT":"2910.02","_id":111731097},"geometry":{"type":"Point","coordinates":[121.212447791662,24.5033541291354]}}
,
{"type":"Feature","properties":{"PAGE":"1324","MOUNTAINNAME":"阿里山","POINTNAME":"治苑山","LEVEL":"Level1","NUMBER":"","COUNTYNAME":"南投縣","TOWNNAME":"信義鄉人和村","TW97_X":"247245.952","TW97_Y":"2626951.394","HEIGHT":"2909.058","_id":111731098},"geometry":{"type":"Point","coordinates":[120.972983723418,23.7464355754988]}}
,
{"type":"Feature","properties":{"PAGE":"1887","MOUNTAINNAME":"池南","POINTNAME":"望臺山","LEVEL":"Level2","NUMBER":"1470","COUNTYNAME":"花蓮縣","TOWNNAME":"","TW97_X":"282693.466","TW97_Y":"2648991.888","HEIGHT":"2906.589","_id":111731099},"geometry":{"type":"Point","coordinates":[121.321199874271,23.9451217548866]}}
,
{"type":"Feature","properties":{"PAGE":"1137","MOUNTAINNAME":"玉山","POINTNAME":"安東昆","LEVEL":"Level3","NUMBER":"7521","COUNTYNAME":"南投縣","TOWNNAME":"","TW97_X":"243871.574","TW97_Y":"2589266.647","HEIGHT":"2905.569","_id":111731100},"geometry":{"type":"Point","coordinates":[120.940036971751,23.4061315780355]}}
,
{"type":"Feature","properties":{"PAGE":"2092","MOUNTAINNAME":"梨山","POINTNAME":"拾丸山","LEVEL":"Level3","NUMBER":"6608","COUNTYNAME":"臺中市","TOWNNAME":"和平鄉","TW97_X":"255408.894","TW97_Y":"2689971.698","HEIGHT":"2904.555","_id":111731101},"geometry":{"type":"Point","coordinates":[121.053293575128,24.3154710405803]}}
,
{"type":"Feature","properties":{"PAGE":"2025","MOUNTAINNAME":"大禹嶺","POINTNAME":"加卑里山","LEVEL":"Level3","NUMBER":"6365","COUNTYNAME":"花蓮縣","TOWNNAME":"","TW97_X":"286340.757","TW97_Y":"2675630.405","HEIGHT":"2903.074","_id":111731102},"geometry":{"type":"Point","coordinates":[121.357698750553,24.1855696268606]}}
,
{"type":"Feature","properties":{"PAGE":"2060","MOUNTAINNAME":"霧社","POINTNAME":"梅松山","LEVEL":"Level3","NUMBER":"6392","COUNTYNAME":"南投縣","TOWNNAME":"力行村望洋後山二千八百公尺山","TW97_X":"272901.504","TW97_Y":"2671798.882","HEIGHT":"2895.991","_id":111731103},"geometry":{"type":"Point","coordinates":[121.225357714362,24.1512267256541]}}
,
{"type":"Feature","properties":{"PAGE":"1959","MOUNTAINNAME":"環山","POINTNAME":"新難山","LEVEL":"Level3","NUMBER":"6309","COUNTYNAME":"宜蘭縣","TOWNNAME":"","TW97_X":"288422.925","TW97_Y":"2690809.813","HEIGHT":"2890.244","_id":111731104},"geometry":{"type":"Point","coordinates":[121.378598551735,24.3225757767948]}}
,
{"type":"Feature","properties":{"PAGE":"2090","MOUNTAINNAME":"梨山","POINTNAME":"帽子山","LEVEL":"Level3","NUMBER":"6607","COUNTYNAME":"臺中市","TOWNNAME":"和平鄉","TW97_X":"262874.282","TW97_Y":"2689377.431","HEIGHT":"2888.773","_id":111731105},"geometry":{"type":"Point","coordinates":[121.126844250585,24.3100616795143]}}
,
{"type":"Feature","properties":{"PAGE":"1953","MOUNTAINNAME":"環山","POINTNAME":"達靈急山","LEVEL":"Level3","NUMBER":"6312","COUNTYNAME":"臺中市","TOWNNAME":"東勢鎮","TW97_X":"286776.464","TW97_Y":"2686808.935","HEIGHT":"2888.46","_id":111731106},"geometry":{"type":"Point","coordinates":[121.3622728895,24.2864914209027]}}
,
{"type":"Feature","properties":{"PAGE":"2064","MOUNTAINNAME":"霧社","POINTNAME":"白狗南山","LEVEL":"Level2","NUMBER":"1224","COUNTYNAME":"南投縣","TOWNNAME":"霧社鄉","TW97_X":"260501.505","TW97_Y":"2672559.924","HEIGHT":"2872.909","_id":111731107},"geometry":{"type":"Point","coordinates":[121.103343754081,24.1582298412148]}}
,
{"type":"Feature","properties":{"PAGE":"1172","MOUNTAINNAME":"卑南主山","POINTNAME":"麻乾於巒","LEVEL":"Level3","NUMBER":"7216","COUNTYNAME":"臺東縣","TOWNNAME":"","TW97_X":"238531.732","TW97_Y":"2559718.433","HEIGHT":"2872.74","_id":111731108},"geometry":{"type":"Point","coordinates":[120.888013099017,23.1392713208676]}}
,
{"type":"Feature","properties":{"PAGE":"2113","MOUNTAINNAME":"梨山","POINTNAME":"三榮山","LEVEL":"Level3","NUMBER":"6620","COUNTYNAME":"苗栗縣","TOWNNAME":"","TW97_X":"267397.376","TW97_Y":"2705855.162","HEIGHT":"2869.402","_id":111731109},"geometry":{"type":"Point","coordinates":[121.171608786774,24.458796191631]}}
,
{"type":"Feature","properties":{"PAGE":"2088","MOUNTAINNAME":"梨山","POINTNAME":"知馬漢山","LEVEL":"Level3","NUMBER":"6606","COUNTYNAME":"臺中市","TOWNNAME":"和平鄉佳陽村知馬漢山頂","TW97_X":"257956.278","TW97_Y":"2689066.075","HEIGHT":"2867.958","_id":111731110},"geometry":{"type":"Point","coordinates":[121.078387787066,24.3072831329291]}}
,
{"type":"Feature","properties":{"PAGE":"1176","MOUNTAINNAME":"卑南主山","POINTNAME":"場山","LEVEL":"Level3","NUMBER":"7211","COUNTYNAME":"臺東縣","TOWNNAME":"","TW97_X":"241460.647","TW97_Y":"2562348.939","HEIGHT":"2867.159","_id":111731111},"geometry":{"type":"Point","coordinates":[120.91659903834,23.1630438872442]}}
,
{"type":"Feature","properties":{"PAGE":"1164","MOUNTAINNAME":"卑南主山","POINTNAME":"尖石山","LEVEL":"Level3","NUMBER":"7230","COUNTYNAME":"臺東縣","TOWNNAME":"","TW97_X":"247583.054","TW97_Y":"2552201.678","HEIGHT":"2865.285","_id":111731112},"geometry":{"type":"Point","coordinates":[120.976410519853,23.0714286364294]}}
,
{"type":"Feature","properties":{"PAGE":"2167","MOUNTAINNAME":"土場","POINTNAME":"馬洋山","LEVEL":"Level3","NUMBER":"6245","COUNTYNAME":"新竹縣","TOWNNAME":"尖石鄉","TW97_X":"277287.129","TW97_Y":"2710803.966","HEIGHT":"2863.731","_id":111731113},"geometry":{"type":"Point","coordinates":[121.269256289841,24.503336122225]}}
,
{"type":"Feature","properties":{"PAGE":"1126","MOUNTAINNAME":"玉山","POINTNAME":"魔界腕","LEVEL":"Level3","NUMBER":"7525","COUNTYNAME":"高雄市","TOWNNAME":"桃源鄉","TW97_X":"237790.34","TW97_Y":"2583650.854","HEIGHT":"2862.126","_id":111731114},"geometry":{"type":"Point","coordinates":[120.880581212138,23.3553854110705]}}
,
{"type":"Feature","properties":{"PAGE":"1145","MOUNTAINNAME":"玉山","POINTNAME":"鹿林前山","LEVEL":"Level3","NUMBER":"4153","COUNTYNAME":"嘉義縣","TOWNNAME":"","TW97_X":"236225.219","TW97_Y":"2596394.929","HEIGHT":"2862.117","_id":111731115},"geometry":{"type":"Point","coordinates":[120.865156730667,23.470454613482]}}
,
{"type":"Feature","properties":{"PAGE":"1976","MOUNTAINNAME":"環山","POINTNAME":"發徒山","LEVEL":"Level3","NUMBER":"6333","COUNTYNAME":"宜蘭縣","TOWNNAME":"大同鄉四季村","TW97_X":"295781.62","TW97_Y":"2701245.217","HEIGHT":"2856.878","_id":111731116},"geometry":{"type":"Point","coordinates":[121.45143979037,24.4165971015172]}}
,
{"type":"Feature","properties":{"PAGE":"1117","MOUNTAINNAME":"玉山","POINTNAME":"","LEVEL":"Level3","NUMBER":"7524","COUNTYNAME":"高雄市","TOWNNAME":"","TW97_X":"245629.802","TW97_Y":"2577940.368","HEIGHT":"2856.521","_id":111731117},"geometry":{"type":"Point","coordinates":[120.957272951268,23.3038575806522]}}
,
{"type":"Feature","properties":{"PAGE":"1029","MOUNTAINNAME":"內埔","POINTNAME":"南太武山","LEVEL":"Level2","NUMBER":"1557","COUNTYNAME":"屏東縣","TOWNNAME":"","TW97_X":"223313.463","TW97_Y":"2497173.506","HEIGHT":"2840.682","_id":111731118},"geometry":{"type":"Point","coordinates":[120.740483039162,22.5742666033244]}}
,
{"type":"Feature","properties":{"PAGE":"1124","MOUNTAINNAME":"玉山","POINTNAME":"昭南丸","LEVEL":"Level3","NUMBER":"內補88","COUNTYNAME":"高雄市","TOWNNAME":"","TW97_X":"248057.589","TW97_Y":"2581074.394","HEIGHT":"2838.914","_id":111731119},"geometry":{"type":"Point","coordinates":[120.981005192665,23.3321635742119]}}
,
{"type":"Feature","properties":{"PAGE":"968","MOUNTAINNAME":"美奈田主山","POINTNAME":"佐美姬","LEVEL":"Level3","NUMBER":"7235","COUNTYNAME":"臺東縣","TOWNNAME":"","TW97_X":"246486.869","TW97_Y":"2544050.425","HEIGHT":"2834.341","_id":111731120},"geometry":{"type":"Point","coordinates":[120.965730335059,22.9978154470684]}}
,
{"type":"Feature","properties":{"PAGE":"1867","MOUNTAINNAME":"池南","POINTNAME":"大安山","LEVEL":"Level2","NUMBER":"1454","COUNTYNAME":"花蓮縣","TOWNNAME":"鳳林鎮西林村","TW97_X":"281088.075","TW97_Y":"2635174.011","HEIGHT":"2828.324","_id":111731121},"geometry":{"type":"Point","coordinates":[121.30513503694,23.8203846358261]}}
,
{"type":"Feature","properties":{"PAGE":"1125","MOUNTAINNAME":"玉山","POINTNAME":"南面山","LEVEL":"Level2","NUMBER":"1682","COUNTYNAME":"高雄市","TOWNNAME":"桃源鄉","TW97_X":"236272.942","TW97_Y":"2582084.023","HEIGHT":"2827.566","_id":111731122},"geometry":{"type":"Point","coordinates":[120.865754286692,23.3412244609108]}}
,
{"type":"Feature","properties":{"PAGE":"1963","MOUNTAINNAME":"環山","POINTNAME":"平岩山","LEVEL":"Level2","NUMBER":"1466","COUNTYNAME":"宜蘭縣","TOWNNAME":"和平鄉平等村","TW97_X":"285134.436","TW97_Y":"2693651.962","HEIGHT":"2827.467","_id":111731123},"geometry":{"type":"Point","coordinates":[121.346265802269,24.3483148464295]}}
,
{"type":"Feature","properties":{"PAGE":"1986","MOUNTAINNAME":"環山","POINTNAME":"邊吉岩山","LEVEL":"Level3","NUMBER":"6316","COUNTYNAME":"宜蘭縣","TOWNNAME":"大同鄉南山村","TW97_X":"284081.459","TW97_Y":"2708693.398","HEIGHT":"2823.557","_id":111731124},"geometry":{"type":"Point","coordinates":[121.336247989513,24.4841457644843]}}
,
{"type":"Feature","properties":{"PAGE":"2026","MOUNTAINNAME":"大禹嶺","POINTNAME":"卵木山","LEVEL":"Level3","NUMBER":"6377","COUNTYNAME":"花蓮縣","TOWNNAME":"","TW97_X":"281347.843","TW97_Y":"2675984.412","HEIGHT":"2818.615","_id":111731125},"geometry":{"type":"Point","coordinates":[121.308562244214,24.1888734122656]}}
,
{"type":"Feature","properties":{"PAGE":"1167","MOUNTAINNAME":"卑南主山","POINTNAME":"石山","LEVEL":"Level3","NUMBER":"7204","COUNTYNAME":"高雄市","TOWNNAME":"桃源鄉","TW97_X":"231999.367","TW97_Y":"2553741.423","HEIGHT":"2818.064","_id":111731126},"geometry":{"type":"Point","coordinates":[120.824295420954,23.0852375118997]}}
,
{"type":"Feature","properties":{"PAGE":"1169","MOUNTAINNAME":"卑南主山","POINTNAME":"伊加之蕃","LEVEL":"Level3","NUMBER":"7291","COUNTYNAME":"臺東縣","TOWNNAME":"","TW97_X":"238702.485","TW97_Y":"2554935.48","HEIGHT":"2817.647","_id":111731127},"geometry":{"type":"Point","coordinates":[120.889715785025,23.0960797797164]}}
,
{"type":"Feature","properties":{"PAGE":"1851","MOUNTAINNAME":"玉里山","POINTNAME":"雙頭北","LEVEL":"Level3","NUMBER":"內補356-1","COUNTYNAME":"花蓮縣","TOWNNAME":"卓溪鄉卓溪村","TW97_X":"251846.88","TW97_Y":"2584980.138","HEIGHT":"2811.09","_id":111731128},"geometry":{"type":"Point","coordinates":[121.018065384218,23.3674337404625]}}
,
{"type":"Feature","properties":{"PAGE":"1918","MOUNTAINNAME":"萬大","POINTNAME":"草山","LEVEL":"Level3","NUMBER":"5975","COUNTYNAME":"花蓮縣","TOWNNAME":"光復鄉萬榮村巒大林區管里處","TW97_X":"273634.606","TW97_Y":"2635438.327","HEIGHT":"2810.999","_id":111731129},"geometry":{"type":"Point","coordinates":[121.231982683621,23.8228987312296]}}
,
{"type":"Feature","properties":{"PAGE":"1879","MOUNTAINNAME":"池南","POINTNAME":"富士岳","LEVEL":"Level3","NUMBER":"6004","COUNTYNAME":"花蓮縣","TOWNNAME":"","TW97_X":"280293.286","TW97_Y":"2644495.842","HEIGHT":"2809.803","_id":111731130},"geometry":{"type":"Point","coordinates":[121.297526328802,23.9045721505843]}}
,
{"type":"Feature","properties":{"PAGE":"1132","MOUNTAINNAME":"玉山","POINTNAME":"新素左屈","LEVEL":"Level3","NUMBER":"7548","COUNTYNAME":"高雄市","TOWNNAME":"","TW97_X":"238402.888","TW97_Y":"2587586.206","HEIGHT":"2809.534","_id":111731131},"geometry":{"type":"Point","coordinates":[120.886542101758,23.3909271176557]}}
,
{"type":"Feature","properties":{"PAGE":"2084","MOUNTAINNAME":"梨山","POINTNAME":"太木山","LEVEL":"Level3","NUMBER":"6603","COUNTYNAME":"臺中市","TOWNNAME":"","TW97_X":"265288.944","TW97_Y":"2685899.637","HEIGHT":"2809.37","_id":111731132},"geometry":{"type":"Point","coordinates":[121.150597667133,24.2786383616943]}}
,
{"type":"Feature","properties":{"PAGE":"2091","MOUNTAINNAME":"梨山","POINTNAME":"椎論山","LEVEL":"Level3","NUMBER":"6311","COUNTYNAME":"臺中市","TOWNNAME":"和平鄉梨山村","TW97_X":"271281.687","TW97_Y":"2689543.48","HEIGHT":"2801.247","_id":111731133},"geometry":{"type":"Point","coordinates":[121.209680577588,24.3114691806679]}}
,
{"type":"Feature","properties":{"PAGE":"1144","MOUNTAINNAME":"玉山","POINTNAME":"石水山","LEVEL":"Level3","NUMBER":"7551","COUNTYNAME":"嘉義縣","TOWNNAME":"","TW97_X":"235947.33","TW97_Y":"2594627.221","HEIGHT":"2800.23","_id":111731134},"geometry":{"type":"Point","coordinates":[120.862452981896,23.4544895724781]}}
,
{"type":"Feature","properties":{"PAGE":"1967","MOUNTAINNAME":"環山","POINTNAME":"多加屯山","LEVEL":"Level3","NUMBER":"6326","COUNTYNAME":"宜蘭縣","TOWNNAME":"大同鄉南山村","TW97_X":"287838.231","TW97_Y":"2696008.522","HEIGHT":"2794.941","_id":111731135},"geometry":{"type":"Point","coordinates":[121.372974858796,24.3695288933505]}}
,
{"type":"Feature","properties":{"PAGE":"1870","MOUNTAINNAME":"池南","POINTNAME":"見晴山","LEVEL":"Level3","NUMBER":"6002","COUNTYNAME":"花蓮縣","TOWNNAME":"萬榮鄉西林村","TW97_X":"279762.746","TW97_Y":"2637737.943","HEIGHT":"2794.874","_id":111731136},"geometry":{"type":"Point","coordinates":[121.29217868221,23.8435611747642]}}
,
{"type":"Feature","properties":{"PAGE":"1173","MOUNTAINNAME":"卑南主山","POINTNAME":"屯古嶺","LEVEL":"Level2","NUMBER":"1675","COUNTYNAME":"臺東縣","TOWNNAME":"","TW97_X":"244138.275","TW97_Y":"2560648.046","HEIGHT":"2789.526","_id":111731137},"geometry":{"type":"Point","coordinates":[120.942757035837,23.1476956074583]}}
,
{"type":"Feature","properties":{"PAGE":"1307","MOUNTAINNAME":"阿里山","POINTNAME":"東埔北山","LEVEL":"Level3","NUMBER":"內補358","COUNTYNAME":"南投縣","TOWNNAME":"信義鄉","TW97_X":"238564.936","TW97_Y":"2599855.135","HEIGHT":"2784.509","_id":111731138},"geometry":{"type":"Point","coordinates":[120.888034132693,23.501718844243]}}
,
{"type":"Feature","properties":{"PAGE":"1306","MOUNTAINNAME":"阿里山","POINTNAME":"東埔山","LEVEL":"Level3","NUMBER":"5019","COUNTYNAME":"南投縣","TOWNNAME":"信義鄉","TW97_X":"238567.709","TW97_Y":"2599837.382","HEIGHT":"2781.589","_id":111731139},"geometry":{"type":"Point","coordinates":[120.888061419773,23.501558552182]}}
,
{"type":"Feature","properties":{"PAGE":"1857","MOUNTAINNAME":"玉里山","POINTNAME":"大分山","LEVEL":"Level3","NUMBER":"內補356","COUNTYNAME":"花蓮縣","TOWNNAME":"卓溪鄉","TW97_X":"253956.751","TW97_Y":"2588391.228","HEIGHT":"2780.2","_id":111731140},"geometry":{"type":"Point","coordinates":[121.038712177394,23.3982330410622]}}
,
{"type":"Feature","properties":{"PAGE":"2055","MOUNTAINNAME":"霧社","POINTNAME":"櫻櫻峰","LEVEL":"Level3","NUMBER":"6387","COUNTYNAME":"南投縣","TOWNNAME":"","TW97_X":"272707.404","TW97_Y":"2668154.443","HEIGHT":"2779.727","_id":111731141},"geometry":{"type":"Point","coordinates":[121.223390551397,24.1183227323505]}}
,
{"type":"Feature","properties":{"PAGE":"1992","MOUNTAINNAME":"大禹嶺","POINTNAME":"彥山","LEVEL":"Level3","NUMBER":"5993","COUNTYNAME":"花蓮縣","TOWNNAME":"秀林鄉木瓜林區管理處","TW97_X":"278080.524","TW97_Y":"2655821.421","HEIGHT":"2774.912","_id":111731142},"geometry":{"type":"Point","coordinates":[121.27601140265,24.0068769022284]}}
,
{"type":"Feature","properties":{"PAGE":"1155","MOUNTAINNAME":"卑南主山","POINTNAME":"相原山","LEVEL":"Level2","NUMBER":"1661","COUNTYNAME":"臺東縣","TOWNNAME":"","TW97_X":"243465.441","TW97_Y":"2545493.544","HEIGHT":"2774.056","_id":111731143},"geometry":{"type":"Point","coordinates":[120.936250992809,23.0108386964644]}}
,
{"type":"Feature","properties":{"PAGE":"2104","MOUNTAINNAME":"梨山","POINTNAME":"西勢山","LEVEL":"Level3","NUMBER":"6622","COUNTYNAME":"苗栗縣","TOWNNAME":"泰安鄉","TW97_X":"260328.796","TW97_Y":"2698065.856","HEIGHT":"2773.207","_id":111731144},"geometry":{"type":"Point","coordinates":[121.101827533364,24.388529378948]}}
,
{"type":"Feature","properties":{"PAGE":"964","MOUNTAINNAME":"美奈田主山","POINTNAME":"出雲山","LEVEL":"Level2","NUMBER":"1565","COUNTYNAME":"高雄市","TOWNNAME":"","TW97_X":"231655.514","TW97_Y":"2541786.335","HEIGHT":"2772.335","_id":111731145},"geometry":{"type":"Point","coordinates":[120.821081642636,22.9772718193901]}}
,
{"type":"Feature","properties":{"PAGE":"1165","MOUNTAINNAME":"卑南主山","POINTNAME":"馬番粕山","LEVEL":"Level3","NUMBER":"7228","COUNTYNAME":"臺東縣","TOWNNAME":"","TW97_X":"242657.13","TW97_Y":"2552367.194","HEIGHT":"2771.779","_id":111731146},"geometry":{"type":"Point","coordinates":[120.92833255135,23.0729088569206]}}
,
{"type":"Feature","properties":{"PAGE":"2270","MOUNTAINNAME":"中壢","POINTNAME":"坪頂埔","LEVEL":"Level3","NUMBER":"內補182","COUNTYNAME":"新竹縣","TOWNNAME":"湖口鎮","TW97_X":"257310.807","TW97_Y":"2750830.092","HEIGHT":"2770.906","_id":111731147},"geometry":{"type":"Point","coordinates":[121.072348098199,24.8649438816755]}}
,
{"type":"Feature","properties":{"PAGE":"1969","MOUNTAINNAME":"環山","POINTNAME":"東穗山","LEVEL":"Level3","NUMBER":"6343","COUNTYNAME":"宜蘭縣","TOWNNAME":"","TW97_X":"298511.639","TW97_Y":"2697271.617","HEIGHT":"2764.703","_id":111731148},"geometry":{"type":"Point","coordinates":[121.478223938238,24.3806377510566]}}
,
{"type":"Feature","properties":{"PAGE":"1158","MOUNTAINNAME":"卑南主山","POINTNAME":"呂禮山","LEVEL":"Level3","NUMBER":"7233","COUNTYNAME":"臺東縣","TOWNNAME":"","TW97_X":"241794.393","TW97_Y":"2547926.221","HEIGHT":"2761.839","_id":111731149},"geometry":{"type":"Point","coordinates":[120.91993583993,23.0328000012551]}}
,
{"type":"Feature","properties":{"PAGE":"1179","MOUNTAINNAME":"卑南主山","POINTNAME":"斯拉巴庫山","LEVEL":"Level3","NUMBER":"7178","COUNTYNAME":"高雄市","TOWNNAME":"","TW97_X":"233571.882","TW97_Y":"2564369.177","HEIGHT":"2756.798","_id":111731150},"geometry":{"type":"Point","coordinates":[120.839530581423,23.1812279620664]}}
,
{"type":"Feature","properties":{"PAGE":"1309","MOUNTAINNAME":"阿里山","POINTNAME":"對關山","LEVEL":"Level3","NUMBER":"內補361","COUNTYNAME":"南投縣","TOWNNAME":"信義鄉東埔村","TW97_X":"244201.487","TW97_Y":"2602675.514","HEIGHT":"2747.587","_id":111731151},"geometry":{"type":"Point","coordinates":[120.943213193397,23.5272170644946]}}
,
{"type":"Feature","properties":{"PAGE":"2074","MOUNTAINNAME":"霧社","POINTNAME":"東高山","LEVEL":"Level3","NUMBER":"6596","COUNTYNAME":"臺中市","TOWNNAME":"和平鄉","TW97_X":"266120.825","TW97_Y":"2680092.642","HEIGHT":"2745.402","_id":111731152},"geometry":{"type":"Point","coordinates":[121.15872666782,24.2261974246464]}}
,
{"type":"Feature","properties":{"PAGE":"2007","MOUNTAINNAME":"大禹嶺","POINTNAME":"突宙山","LEVEL":"Level3","NUMBER":"5988","COUNTYNAME":"花蓮縣","TOWNNAME":"秀林鄉","TW97_X":"285360.348","TW97_Y":"2663702.559","HEIGHT":"2741.783","_id":111731153},"geometry":{"type":"Point","coordinates":[121.34775748368,24.0778927682112]}}
,
{"type":"Feature","properties":{"PAGE":"1919","MOUNTAINNAME":"萬大","POINTNAME":"鳶山","LEVEL":"Level3","NUMBER":"5974","COUNTYNAME":"南投縣","TOWNNAME":"水里鎮巒大林區管理處第五林班","TW97_X":"268447.111","TW97_Y":"2635751.636","HEIGHT":"2735.641","_id":111731154},"geometry":{"type":"Point","coordinates":[121.181069590625,23.8257960172295]}}
,
{"type":"Feature","properties":{"PAGE":"993","MOUNTAINNAME":"太麻里","POINTNAME":"霧頭山","LEVEL":"Level2","NUMBER":"1559","COUNTYNAME":"屏東縣","TOWNNAME":"霧臺鄉阿禮村","TW97_X":"227255.708","TW97_Y":"2510516.685","HEIGHT":"2735.593","_id":111731155},"geometry":{"type":"Point","coordinates":[120.778626770254,22.6948268751828]}}
,
{"type":"Feature","properties":{"PAGE":"1883","MOUNTAINNAME":"池南","POINTNAME":"松山","LEVEL":"Level3","NUMBER":"6006","COUNTYNAME":"花蓮縣","TOWNNAME":"秀林鄉","TW97_X":"288276.081","TW97_Y":"2646690.412","HEIGHT":"2729.956","_id":111731156},"geometry":{"type":"Point","coordinates":[121.375985723971,23.9242162579997]}}
,
{"type":"Feature","properties":{"PAGE":"1154","MOUNTAINNAME":"卑南主山","POINTNAME":"見晴","LEVEL":"Level3","NUMBER":"7195","COUNTYNAME":"高雄市","TOWNNAME":"桃源鄉日據時代會哨地北邊之山","TW97_X":"233838.286","TW97_Y":"2545104.819","HEIGHT":"2720.064","_id":111731157},"geometry":{"type":"Point","coordinates":[120.842335908413,23.0072625856348]}}
,
{"type":"Feature","properties":{"PAGE":"1973","MOUNTAINNAME":"環山","POINTNAME":"羅葉尾山","LEVEL":"Level3","NUMBER":"6310","COUNTYNAME":"宜蘭縣","TOWNNAME":"大同、和平鄉交界","TW97_X":"282331.43","TW97_Y":"2699431.437","HEIGHT":"2717.117","_id":111731158},"geometry":{"type":"Point","coordinates":[121.318772040046,24.4005580566462]}}
,
{"type":"Feature","properties":{"PAGE":"2107","MOUNTAINNAME":"梨山","POINTNAME":"大安山","LEVEL":"Level3","NUMBER":"6621","COUNTYNAME":"苗栗縣","TOWNNAME":"五峰鄉桃山村大安山頂","TW97_X":"267656.51","TW97_Y":"2700899.976","HEIGHT":"2710.28","_id":111731159},"geometry":{"type":"Point","coordinates":[121.174103448894,24.4140529555355]}}
,
{"type":"Feature","properties":{"PAGE":"1850","MOUNTAINNAME":"玉里山","POINTNAME":"闊闊斯","LEVEL":"Level3","NUMBER":"內補355","COUNTYNAME":"花蓮縣","TOWNNAME":"卓溪鄉","TW97_X":"255155.021","TW97_Y":"2584689.994","HEIGHT":"2698.7","_id":111731160},"geometry":{"type":"Point","coordinates":[121.050423196614,23.3648065765633]}}
,
{"type":"Feature","properties":{"PAGE":"2086","MOUNTAINNAME":"梨山","POINTNAME":"唐呂山","LEVEL":"Level3","NUMBER":"6605","COUNTYNAME":"臺中市","TOWNNAME":"和平鄉佳陽村","TW97_X":"261043.388","TW97_Y":"2687482.845","HEIGHT":"2697.085","_id":111731161},"geometry":{"type":"Point","coordinates":[121.108790753763,24.2929691284399]}}
,
{"type":"Feature","properties":{"PAGE":"1958","MOUNTAINNAME":"環山","POINTNAME":"西吉南山","LEVEL":"Level2","NUMBER":"1457","COUNTYNAME":"花蓮縣","TOWNNAME":"秀林鄉富田村","TW97_X":"298611.2","TW97_Y":"2690765.19","HEIGHT":"2693.937","_id":111731162},"geometry":{"type":"Point","coordinates":[121.478984285753,24.3218893322704]}}
,
{"type":"Feature","properties":{"PAGE":"2083","MOUNTAINNAME":"梨山","POINTNAME":"三錐山","LEVEL":"Level3","NUMBER":"6602","COUNTYNAME":"臺中市","TOWNNAME":"和平鄉三錐山頂","TW97_X":"256034.994","TW97_Y":"2685603.507","HEIGHT":"2688.835","_id":111731163},"geometry":{"type":"Point","coordinates":[121.059444133675,24.2760275143001]}}
,
{"type":"Feature","properties":{"PAGE":"2047","MOUNTAINNAME":"霧社","POINTNAME":"尾上山","LEVEL":"Level3","NUMBER":"5939","COUNTYNAME":"南投縣","TOWNNAME":"仁愛鄉埔里林管處二七林班","TW97_X":"272732.712","TW97_Y":"2661452.589","HEIGHT":"2681.743","_id":111731164},"geometry":{"type":"Point","coordinates":[121.223534540501,24.0578088223205]}}
,
{"type":"Feature","properties":{"PAGE":"2035","MOUNTAINNAME":"大禹嶺","POINTNAME":"東捫岡","LEVEL":"Level3","NUMBER":"6308","COUNTYNAME":"臺中市","TOWNNAME":"","TW97_X":"277997.738","TW97_Y":"2682131.774","HEIGHT":"2677.964","_id":111731165},"geometry":{"type":"Point","coordinates":[121.275706331909,24.2444422690026]}}
,
{"type":"Feature","properties":{"PAGE":"2082","MOUNTAINNAME":"梨山","POINTNAME":"鞍安山","LEVEL":"Level3","NUMBER":"6586","COUNTYNAME":"臺中市","TOWNNAME":"和平鄉","TW97_X":"250510.774","TW97_Y":"2685116.329","HEIGHT":"2665.98","_id":111731166},"geometry":{"type":"Point","coordinates":[121.005030904574,24.2716402138457]}}
,
{"type":"Feature","properties":{"PAGE":"2093","MOUNTAINNAME":"梨山","POINTNAME":"武加加難山","LEVEL":"Level3","NUMBER":"6314","COUNTYNAME":"臺中市","TOWNNAME":"和平鄉","TW97_X":"274524.844","TW97_Y":"2690265.488","HEIGHT":"2658.967","_id":111731167},"geometry":{"type":"Point","coordinates":[121.241646347546,24.3179407777587]}}
,
{"type":"Feature","properties":{"PAGE":"2065","MOUNTAINNAME":"霧社","POINTNAME":"麻加拉路","LEVEL":"Level3","NUMBER":"6394","COUNTYNAME":"南投縣","TOWNNAME":"仁愛鄉","TW97_X":"265916.241","TW97_Y":"2673079.329","HEIGHT":"2658.162","_id":111731168},"geometry":{"type":"Point","coordinates":[121.156634958582,24.1628743221478]}}
,
{"type":"Feature","properties":{"PAGE":"1925","MOUNTAINNAME":"萬大","POINTNAME":"卓社山","LEVEL":"Level3","NUMBER":"5980","COUNTYNAME":"南投縣","TOWNNAME":"埔里林區管理處第五林班","TW97_X":"258456.237","TW97_Y":"2638409.179","HEIGHT":"2653.84","_id":111731169},"geometry":{"type":"Point","coordinates":[121.083018501392,23.8498768888459]}}
,
{"type":"Feature","properties":{"PAGE":"1168","MOUNTAINNAME":"卑南主山","POINTNAME":"溪南山","LEVEL":"Level3","NUMBER":"7203","COUNTYNAME":"高雄市","TOWNNAME":"桃源鄉","TW97_X":"229202.933","TW97_Y":"2554846.277","HEIGHT":"2650.077","_id":111731170},"geometry":{"type":"Point","coordinates":[120.796984503726,23.0951822223273]}}
,
{"type":"Feature","properties":{"PAGE":"2413","MOUNTAINNAME":"和平","POINTNAME":"曉星山","LEVEL":"Level3","NUMBER":"6379","COUNTYNAME":"花蓮縣","TOWNNAME":"","TW97_X":"311624.631","TW97_Y":"2685677.087","HEIGHT":"2645.485","_id":111731171},"geometry":{"type":"Point","coordinates":[121.606986883766,24.275491748922]}}
,
{"type":"Feature","properties":{"PAGE":"2011","MOUNTAINNAME":"大禹嶺","POINTNAME":"瀧奧","LEVEL":"Level3","NUMBER":"5941","COUNTYNAME":"南投縣","TOWNNAME":"","TW97_X":"278712.87","TW97_Y":"2666780.852","HEIGHT":"2644.928","_id":111731172},"geometry":{"type":"Point","coordinates":[121.282443317622,24.1058223461977]}}
,
{"type":"Feature","properties":{"PAGE":"1160","MOUNTAINNAME":"卑南主山","POINTNAME":"白松山","LEVEL":"Level2","NUMBER":"7231","COUNTYNAME":"臺東縣","TOWNNAME":"","TW97_X":"246926.267","TW97_Y":"2548627.743","HEIGHT":"2633.455","_id":111731173},"geometry":{"type":"Point","coordinates":[120.970007406427,23.0391526249353]}}
,
{"type":"Feature","properties":{"PAGE":"2111","MOUNTAINNAME":"梨山","POINTNAME":"中山","LEVEL":"Level2","NUMBER":"1541","COUNTYNAME":"苗栗縣","TOWNNAME":"","TW97_X":"264446.122","TW97_Y":"2704631.414","HEIGHT":"2631.702","_id":111731174},"geometry":{"type":"Point","coordinates":[121.142485087257,24.4477772358563]}}
,
{"type":"Feature","properties":{"PAGE":"2120","MOUNTAINNAME":"梨山","POINTNAME":"鹿場大山","LEVEL":"Level2","NUMBER":"1536","COUNTYNAME":"新竹縣","TOWNNAME":"竹東鎮","TW97_X":"256336.968","TW97_Y":"2710287.818","HEIGHT":"2617.752","_id":111731175},"geometry":{"type":"Point","coordinates":[121.062528109313,24.4989030006278]}}
,
{"type":"Feature","properties":{"PAGE":"1945","MOUNTAINNAME":"萬大","POINTNAME":"麻平暮山","LEVEL":"Level2","NUMBER":"1458","COUNTYNAME":"南投縣","TOWNNAME":"","TW97_X":"269587.778","TW97_Y":"2653365.123","HEIGHT":"2617.464","_id":111731176},"geometry":{"type":"Point","coordinates":[121.192501262392,23.9848253268343]}}
,
{"type":"Feature","properties":{"PAGE":"1148","MOUNTAINNAME":"玉山","POINTNAME":"東水山","LEVEL":"Level3","NUMBER":"4144","COUNTYNAME":"嘉義縣","TOWNNAME":"","TW97_X":"231349.068","TW97_Y":"2596719.878","HEIGHT":"2610.51","_id":111731177},"geometry":{"type":"Point","coordinates":[120.817419528459,23.4733403633415]}}
,
{"type":"Feature","properties":{"PAGE":"2405","MOUNTAINNAME":"新城","POINTNAME":"三角錐山","LEVEL":"Level3","NUMBER":"4303","COUNTYNAME":"花蓮縣","TOWNNAME":"","TW97_X":"309200.378","TW97_Y":"2678563.962","HEIGHT":"2607.262","_id":111731178},"geometry":{"type":"Point","coordinates":[121.582816961737,24.2113623000125]}}
,
{"type":"Feature","properties":{"PAGE":"962","MOUNTAINNAME":"美奈田主山","POINTNAME":"小禿山","LEVEL":"Level3","NUMBER":"7166","COUNTYNAME":"臺東縣","TOWNNAME":"","TW97_X":"245914.523","TW97_Y":"2538822.077","HEIGHT":"2589.844","_id":111731179},"geometry":{"type":"Point","coordinates":[120.960161093438,22.950598327774]}}
,
{"type":"Feature","properties":{"PAGE":"2170","MOUNTAINNAME":"土場","POINTNAME":"馬望女苦","LEVEL":"Level3","NUMBER":"6241","COUNTYNAME":"新竹縣","TOWNNAME":"尖石鄉","TW97_X":"280916.235","TW97_Y":"2713223.412","HEIGHT":"2584.384","_id":111731180},"geometry":{"type":"Point","coordinates":[121.305118942082,24.5251127241587]}}
,
{"type":"Feature","properties":{"PAGE":"1989","MOUNTAINNAME":"環山","POINTNAME":"馬惱山","LEVEL":"Level3","NUMBER":"6273","COUNTYNAME":"宜蘭縣","TOWNNAME":"大同鄉南山村","TW97_X":"285951.527","TW97_Y":"2709827.97","HEIGHT":"2580.293","_id":111731181},"geometry":{"type":"Point","coordinates":[121.354726554686,24.4943473861083]}}
,
{"type":"Feature","properties":{"PAGE":"2177","MOUNTAINNAME":"土場","POINTNAME":"木名地山","LEVEL":"Level2","NUMBER":"1538","COUNTYNAME":"新竹縣","TOWNNAME":"尖石鄉","TW97_X":"277006.106","TW97_Y":"2716218.534","HEIGHT":"2574.783","_id":111731182},"geometry":{"type":"Point","coordinates":[121.266586512474,24.5522282138252]}}
,
{"type":"Feature","properties":{"PAGE":"2061","MOUNTAINNAME":"霧社","POINTNAME":"檜山","LEVEL":"Level3","NUMBER":"6400","COUNTYNAME":"南投縣","TOWNNAME":"仁愛鄉","TW97_X":"256420.111","TW97_Y":"2671837.215","HEIGHT":"2572.938","_id":111731183},"geometry":{"type":"Point","coordinates":[121.063176176856,24.1517261598161]}}
,
{"type":"Feature","properties":{"PAGE":"2068","MOUNTAINNAME":"霧社","POINTNAME":"三錐山","LEVEL":"Level3","NUMBER":"6396","COUNTYNAME":"南投縣","TOWNNAME":"仁愛鄉紅香村","TW97_X":"264136.466","TW97_Y":"2675781.891","HEIGHT":"2569.605","_id":111731184},"geometry":{"type":"Point","coordinates":[121.139146326196,24.1872935789557]}}
,
{"type":"Feature","properties":{"PAGE":"2411","MOUNTAINNAME":"和平","POINTNAME":"二子山","LEVEL":"Level2","NUMBER":"1452","COUNTYNAME":"花蓮縣","TOWNNAME":"","TW97_X":"307045.815","TW97_Y":"2683786.543","HEIGHT":"2565.068","_id":111731185},"geometry":{"type":"Point","coordinates":[121.561813436556,24.2585957899456]}}
,
{"type":"Feature","properties":{"PAGE":"1177","MOUNTAINNAME":"卑南主山","POINTNAME":"保奈具南","LEVEL":"Level3","NUMBER":"7213","COUNTYNAME":"臺東縣","TOWNNAME":"海端鄉","TW97_X":"245994.23","TW97_Y":"2563198.802","HEIGHT":"2565.032","_id":111731186},"geometry":{"type":"Point","coordinates":[120.960874762014,23.1707358045076]}}
,
{"type":"Feature","properties":{"PAGE":"1127","MOUNTAINNAME":"玉山","POINTNAME":"雲峰","LEVEL":"Level2","NUMBER":"1684","COUNTYNAME":"高雄市","TOWNNAME":"桃源鄉","TW97_X":"246692.409","TW97_Y":"2583661.78","HEIGHT":"2563.757","_id":111731187},"geometry":{"type":"Point","coordinates":[120.967649458877,23.3555262840741]}}
,
{"type":"Feature","properties":{"PAGE":"1816","MOUNTAINNAME":"關山","POINTNAME":"四方山","LEVEL":"Level2","NUMBER":"1672","COUNTYNAME":"臺東縣","TOWNNAME":"","TW97_X":"250246.681","TW97_Y":"2552927.208","HEIGHT":"2558.34","_id":111731188},"geometry":{"type":"Point","coordinates":[121.002407732164,23.0779823647441]}}
,
{"type":"Feature","properties":{"PAGE":"1313","MOUNTAINNAME":"阿里山","POINTNAME":"松山","LEVEL":"Level3","NUMBER":"5027","COUNTYNAME":"南投縣","TOWNNAME":"信義鄉神木村","TW97_X":"230875.154","TW97_Y":"2606783.691","HEIGHT":"2556.962","_id":111731189},"geometry":{"type":"Point","coordinates":[120.812651688791,23.5642117037859]}}
,
{"type":"Feature","properties":{"PAGE":"953","MOUNTAINNAME":"美奈田主山","POINTNAME":"石穗頭","LEVEL":"Level3","NUMBER":"7169","COUNTYNAME":"高雄市","TOWNNAME":"","TW97_X":"232101.557","TW97_Y":"2533436.15","HEIGHT":"2554.574","_id":111731190},"geometry":{"type":"Point","coordinates":[120.825528655142,22.9018683856023]}}
,
{"type":"Feature","properties":{"PAGE":"1844","MOUNTAINNAME":"關山","POINTNAME":"東舞樂山","LEVEL":"Level3","NUMBER":"7511","COUNTYNAME":"臺東縣","TOWNNAME":"","TW97_X":"262570.401","TW97_Y":"2568907.703","HEIGHT":"2544.567","_id":111731191},"geometry":{"type":"Point","coordinates":[121.122824859857,23.2222468096228]}}
,
{"type":"Feature","properties":{"PAGE":"1933","MOUNTAINNAME":"萬大","POINTNAME":"室呂木","LEVEL":"Level3","NUMBER":"5952","COUNTYNAME":"南投縣","TOWNNAME":"仁愛鄉後萬大第十三林班","TW97_X":"267964.794","TW97_Y":"2644527.196","HEIGHT":"2533.734","_id":111731192},"geometry":{"type":"Point","coordinates":[121.176442695974,23.9050418445941]}}
,
{"type":"Feature","properties":{"PAGE":"2100","MOUNTAINNAME":"梨山","POINTNAME":"合流山","LEVEL":"Level2","NUMBER":"1542","COUNTYNAME":"臺中市","TOWNNAME":"","TW97_X":"255474.104","TW97_Y":"2695093.727","HEIGHT":"2533.013","_id":111731193},"geometry":{"type":"Point","coordinates":[121.053955672358,24.361718341144]}}
,
{"type":"Feature","properties":{"PAGE":"1171","MOUNTAINNAME":"卑南主山","POINTNAME":"坑頭山","LEVEL":"Level3","NUMBER":"7221","COUNTYNAME":"臺東縣","TOWNNAME":"","TW97_X":"247069.201","TW97_Y":"2557980.007","HEIGHT":"2532.08","_id":111731194},"geometry":{"type":"Point","coordinates":[120.971384246751,23.1236095456855]}}
,
{"type":"Feature","properties":{"PAGE":"2506","MOUNTAINNAME":"三星","POINTNAME":"三星山","LEVEL":"Level1","NUMBER":"","COUNTYNAME":"宜蘭縣","TOWNNAME":"","TW97_X":"306317.964","TW97_Y":"2711741.171","HEIGHT":"2531.888","_id":111731195},"geometry":{"type":"Point","coordinates":[121.55574799574,24.5110150703448]}}
,
{"type":"Feature","properties":{"PAGE":"2073","MOUNTAINNAME":"霧社","POINTNAME":"更孟山","LEVEL":"Level2","NUMBER":"1225","COUNTYNAME":"臺中市","TOWNNAME":"霧社鄉","TW97_X":"272555.992","TW97_Y":"2680068.55","HEIGHT":"2531.536","_id":111731196},"geometry":{"type":"Point","coordinates":[121.222087034786,24.2259006581159]}}
,
{"type":"Feature","properties":{"PAGE":"1957","MOUNTAINNAME":"環山","POINTNAME":"羅閑山","LEVEL":"Level3","NUMBER":"6302","COUNTYNAME":"臺中市","TOWNNAME":"","TW97_X":"285497.533","TW97_Y":"2690002.51","HEIGHT":"2527.243","_id":111731197},"geometry":{"type":"Point","coordinates":[121.349753774775,24.3153557879981]}}
,
{"type":"Feature","properties":{"PAGE":"1890","MOUNTAINNAME":"池南","POINTNAME":"燒山","LEVEL":"Level3","NUMBER":"6011","COUNTYNAME":"花蓮縣","TOWNNAME":"秀林鄉","TW97_X":"284354.646","TW97_Y":"2652344.946","HEIGHT":"2523.523","_id":111731198},"geometry":{"type":"Point","coordinates":[121.337598895778,23.9753629828774]}}
,
{"type":"Feature","properties":{"PAGE":"1186","MOUNTAINNAME":"卑南主山","POINTNAME":"鐵本山","LEVEL":"Level3","NUMBER":"7180","COUNTYNAME":"高雄市","TOWNNAME":"桃源鄉樟山村","TW97_X":"235425.965","TW97_Y":"2569844.577","HEIGHT":"2523.184","_id":111731199},"geometry":{"type":"Point","coordinates":[120.857588787058,23.2306906611112]}}
,
{"type":"Feature","properties":{"PAGE":"2099","MOUNTAINNAME":"梨山","POINTNAME":"頭鷹山","LEVEL":"Level3","NUMBER":"6612","COUNTYNAME":"臺中市","TOWNNAME":"苗栗縣、臺中市縣交界處","TW97_X":"263448.444","TW97_Y":"2695062.723","HEIGHT":"2509.586","_id":111731200},"geometry":{"type":"Point","coordinates":[121.132554589269,24.3613900627306]}}
,
{"type":"Feature","properties":{"PAGE":"2172","MOUNTAINNAME":"土場","POINTNAME":"馬望海","LEVEL":"Level3","NUMBER":"6275","COUNTYNAME":"新竹縣","TOWNNAME":"尖石鄉","TW97_X":"280361.009","TW97_Y":"2714749.966","HEIGHT":"2507.396","_id":111731201},"geometry":{"type":"Point","coordinates":[121.299672074407,24.5389066433981]}}
,
{"type":"Feature","properties":{"PAGE":"2001","MOUNTAINNAME":"大禹嶺","POINTNAME":"巴杜蘭","LEVEL":"Level3","NUMBER":"5992","COUNTYNAME":"花蓮縣","TOWNNAME":"","TW97_X":"291982.112","TW97_Y":"2660632.197","HEIGHT":"2506.476","_id":111731202},"geometry":{"type":"Point","coordinates":[121.412790449739,24.0500078279278]}}
,
{"type":"Feature","properties":{"PAGE":"1189","MOUNTAINNAME":"卑南主山","POINTNAME":"向陽","LEVEL":"Level3","NUMBER":"7532","COUNTYNAME":"臺東縣","TOWNNAME":"海端鄉","TW97_X":"247236.449","TW97_Y":"2571869.082","HEIGHT":"2506.252","_id":111731203},"geometry":{"type":"Point","coordinates":[120.972992055493,23.2490350062547]}}
,
{"type":"Feature","properties":{"PAGE":"1188","MOUNTAINNAME":"卑南主山","POINTNAME":"-1","LEVEL":"Level3","NUMBER":"7215","COUNTYNAME":"臺東縣","TOWNNAME":"海端鄉戒茂斯","TW97_X":"250252.307","TW97_Y":"2571306.674","HEIGHT":"2503.791","_id":111731204},"geometry":{"type":"Point","coordinates":[121.002465681202,23.2439585262875]}}
,
{"type":"Feature","properties":{"PAGE":"951","MOUNTAINNAME":"美奈田主山","POINTNAME":"拜仁士心","LEVEL":"Level3","NUMBER":"7168","COUNTYNAME":"臺東縣","TOWNNAME":"","TW97_X":"236037.985","TW97_Y":"2532843.204","HEIGHT":"2499.432","_id":111731205},"geometry":{"type":"Point","coordinates":[120.863905613352,22.8965511058714]}}
,
{"type":"Feature","properties":{"PAGE":"2395","MOUNTAINNAME":"新城","POINTNAME":"豬股","LEVEL":"Level3","NUMBER":"5982","COUNTYNAME":"花蓮縣","TOWNNAME":"秀林鄉","TW97_X":"302884.514","TW97_Y":"2667991.044","HEIGHT":"2495.941","_id":111731206},"geometry":{"type":"Point","coordinates":[121.520253665967,24.1161248491795]}}
,
{"type":"Feature","properties":{"PAGE":"1965","MOUNTAINNAME":"環山","POINTNAME":"馬武霸山","LEVEL":"Level3","NUMBER":"6322","COUNTYNAME":"臺中市","TOWNNAME":"和平鄉環山村","TW97_X":"278092.442","TW97_Y":"2694067.876","HEIGHT":"2495.777","_id":111731207},"geometry":{"type":"Point","coordinates":[121.276872638572,24.3522126932095]}}
,
{"type":"Feature","properties":{"PAGE":"1984","MOUNTAINNAME":"環山","POINTNAME":"見晴山","LEVEL":"Level2","NUMBER":"1550","COUNTYNAME":"宜蘭縣","TOWNNAME":"大同鄉四季村","TW97_X":"297630.313","TW97_Y":"2705771.469","HEIGHT":"2491.528","_id":111731208},"geometry":{"type":"Point","coordinates":[121.469820167936,24.4574079193175]}}
,
{"type":"Feature","properties":{"PAGE":"2119","MOUNTAINNAME":"梨山","POINTNAME":"榛山","LEVEL":"Level3","NUMBER":"6617","COUNTYNAME":"苗栗縣","TOWNNAME":"","TW97_X":"260134.372","TW97_Y":"2708226.616","HEIGHT":"2488.677","_id":111731209},"geometry":{"type":"Point","coordinates":[121.099983092903,24.4802723410709]}}
,
{"type":"Feature","properties":{"PAGE":"1308","MOUNTAINNAME":"阿里山","POINTNAME":"祝山","LEVEL":"Level3","NUMBER":"內補240","COUNTYNAME":"嘉義縣","TOWNNAME":"阿里山","TW97_X":"231162.987","TW97_Y":"2600537.727","HEIGHT":"2488.642","_id":111731210},"geometry":{"type":"Point","coordinates":[120.815549965701,23.5078137581525]}}
,
{"type":"Feature","properties":{"PAGE":"2077","MOUNTAINNAME":"霧社","POINTNAME":"比壽潭山","LEVEL":"Level3","NUMBER":"6598","COUNTYNAME":"臺中市","TOWNNAME":"和平鄉德基村","TW97_X":"263616.41","TW97_Y":"2681701.69","HEIGHT":"2484.945","_id":111731211},"geometry":{"type":"Point","coordinates":[121.13408331391,24.2407496240413]}}
,
{"type":"Feature","properties":{"PAGE":"1310","MOUNTAINNAME":"阿里山","POINTNAME":"塔山","LEVEL":"Level2","NUMBER":"1190","COUNTYNAME":"嘉義縣","TOWNNAME":"","TW97_X":"226838.769","TW97_Y":"2606108.132","HEIGHT":"2484.052","_id":111731212},"geometry":{"type":"Point","coordinates":[120.773121677365,23.5580587396582]}}
,
{"type":"Feature","properties":{"PAGE":"1934","MOUNTAINNAME":"萬大","POINTNAME":"尖臺山","LEVEL":"Level3","NUMBER":"5949","COUNTYNAME":"南投縣","TOWNNAME":"仁愛鄉親愛村後萬大第十林班","TW97_X":"264696.008","TW97_Y":"2646748.853","HEIGHT":"2482.855","_id":111731213},"geometry":{"type":"Point","coordinates":[121.144360421582,23.92513603993]}}
,
{"type":"Feature","properties":{"PAGE":"1116","MOUNTAINNAME":"玉山","POINTNAME":"新望嶺","LEVEL":"Level1","NUMBER":"","COUNTYNAME":"高雄市","TOWNNAME":"桃源鄉梅山村","TW97_X":"226916.768","TW97_Y":"2577124.02","HEIGHT":"2481.313","_id":111731214},"geometry":{"type":"Point","coordinates":[120.774330320397,23.2963291329381]}}
,
{"type":"Feature","properties":{"PAGE":"1812","MOUNTAINNAME":"關山","POINTNAME":"贊雅樂山","LEVEL":"Level3","NUMBER":"7227","COUNTYNAME":"臺東縣","TOWNNAME":"","TW97_X":"250633.998","TW97_Y":"2550942.325","HEIGHT":"2480.235","_id":111731215},"geometry":{"type":"Point","coordinates":[121.006187323508,23.0600575245342]}}
,
{"type":"Feature","properties":{"PAGE":"2002","MOUNTAINNAME":"大禹嶺","POINTNAME":"朝日","LEVEL":"Level3","NUMBER":"5995","COUNTYNAME":"花蓮縣","TOWNNAME":"","TW97_X":"282788.739","TW97_Y":"2660689.915","HEIGHT":"2477.798","_id":111731216},"geometry":{"type":"Point","coordinates":[121.322398892654,24.0507460269153]}}
,
{"type":"Feature","properties":{"PAGE":"2214","MOUNTAINNAME":"竹東","POINTNAME":"結城山","LEVEL":"Level2","NUMBER":"1539","COUNTYNAME":"新竹縣","TOWNNAME":"","TW97_X":"267254.097","TW97_Y":"2711417.868","HEIGHT":"2475.471","_id":111731217},"geometry":{"type":"Point","coordinates":[121.170263055785,24.5090230877215]}}
,
{"type":"Feature","properties":{"PAGE":"1143","MOUNTAINNAME":"玉山","POINTNAME":"北霞山","LEVEL":"Level3","NUMBER":"7520","COUNTYNAME":"嘉義縣","TOWNNAME":"","TW97_X":"230552.098","TW97_Y":"2594286.857","HEIGHT":"2471.585","_id":111731218},"geometry":{"type":"Point","coordinates":[120.809649248777,23.4513605510233]}}
,
{"type":"Feature","properties":{"PAGE":"1981","MOUNTAINNAME":"環山","POINTNAME":"霧覽山","LEVEL":"Level3","NUMBER":"6340","COUNTYNAME":"宜蘭縣","TOWNNAME":"大同鄉四季村","TW97_X":"297082.274","TW97_Y":"2703428.26","HEIGHT":"2471.378","_id":111731219},"geometry":{"type":"Point","coordinates":[121.464336992185,24.4362684453535]}}
,
{"type":"Feature","properties":{"PAGE":"1153","MOUNTAINNAME":"卑南主山","POINTNAME":"孟浪山","LEVEL":"Level3","NUMBER":"內補144","COUNTYNAME":"高雄市","TOWNNAME":"桃源鄉寶山村藤枝荖濃林道四十","TW97_X":"220201.183","TW97_Y":"2544465.957","HEIGHT":"2460.407","_id":111731220},"geometry":{"type":"Point","coordinates":[120.709313799499,23.0013049562486]}}
,
{"type":"Feature","properties":{"PAGE":"959","MOUNTAINNAME":"美奈田主山","POINTNAME":"內本鹿山","LEVEL":"Level3","NUMBER":"7165","COUNTYNAME":"高雄市","TOWNNAME":"","TW97_X":"230895.978","TW97_Y":"2537386.784","HEIGHT":"2459.425","_id":111731221},"geometry":{"type":"Point","coordinates":[120.813728140272,22.9375322332489]}}
,
{"type":"Feature","properties":{"PAGE":"1876","MOUNTAINNAME":"池南","POINTNAME":"二子山","LEVEL":"Level3","NUMBER":"6001","COUNTYNAME":"花蓮縣","TOWNNAME":"萬榮鄉西林村","TW97_X":"282743.31","TW97_Y":"2641868.405","HEIGHT":"2453.785","_id":111731222},"geometry":{"type":"Point","coordinates":[121.321530368458,23.8807991958582]}}
,
{"type":"Feature","properties":{"PAGE":"2422","MOUNTAINNAME":"和平","POINTNAME":"高律山","LEVEL":"Level3","NUMBER":"6347","COUNTYNAME":"宜蘭縣","TOWNNAME":"南澳鄉","TW97_X":"304481.833","TW97_Y":"2692739.952","HEIGHT":"2453.324","_id":111731223},"geometry":{"type":"Point","coordinates":[121.536903064012,24.3395254536042]}}
,
{"type":"Feature","properties":{"PAGE":"2398","MOUNTAINNAME":"新城","POINTNAME":"塔山","LEVEL":"Level1","NUMBER":"","COUNTYNAME":"花蓮縣","TOWNNAME":"秀林鄉","TW97_X":"305178.506","TW97_Y":"2671052.341","HEIGHT":"2448.909","_id":111731224},"geometry":{"type":"Point","coordinates":[121.542936798776,24.1436867454655]}}
,
{"type":"Feature","properties":{"PAGE":"2184","MOUNTAINNAME":"土場","POINTNAME":"泰矢生山","LEVEL":"Level2","NUMBER":"1531","COUNTYNAME":"臺北市","TOWNNAME":"","TW97_X":"286902.028","TW97_Y":"2721073.963","HEIGHT":"2444.305","_id":111731225},"geometry":{"type":"Point","coordinates":[121.364397970582,24.5958619463296]}}
,
{"type":"Feature","properties":{"PAGE":"2016","MOUNTAINNAME":"大禹嶺","POINTNAME":"富田山","LEVEL":"Level3","NUMBER":"5983","COUNTYNAME":"花蓮縣","TOWNNAME":"秀林鄉","TW97_X":"299568.872","TW97_Y":"2671481.454","HEIGHT":"2441.135","_id":111731226},"geometry":{"type":"Point","coordinates":[121.487756357442,24.1477475681932]}}
,
{"type":"Feature","properties":{"PAGE":"940","MOUNTAINNAME":"美奈田主山","POINTNAME":"倫原山","LEVEL":"Level3","NUMBER":"7129","COUNTYNAME":"屏東縣","TOWNNAME":"","TW97_X":"227346.658","TW97_Y":"2525758.842","HEIGHT":"2434.193","_id":111731227},"geometry":{"type":"Point","coordinates":[120.779290872902,22.8324785915022]}}
,
{"type":"Feature","properties":{"PAGE":"1881","MOUNTAINNAME":"池南","POINTNAME":"木瓜山","LEVEL":"Level1","NUMBER":"","COUNTYNAME":"花蓮縣","TOWNNAME":"秀林鄉池南村","TW97_X":"294491.688","TW97_Y":"2645686.803","HEIGHT":"2426.817","_id":111731228},"geometry":{"type":"Point","coordinates":[121.437009821086,23.9149928123992]}}
,
{"type":"Feature","properties":{"PAGE":"2070","MOUNTAINNAME":"霧社","POINTNAME":"松嶺","LEVEL":"Level3","NUMBER":"6393","COUNTYNAME":"南投縣","TOWNNAME":"仁愛鄉","TW97_X":"272067.258","TW97_Y":"2676474.859","HEIGHT":"2426.606","_id":111731229},"geometry":{"type":"Point","coordinates":[121.217219960846,24.1934593241569]}}
,
{"type":"Feature","properties":{"PAGE":"1076","MOUNTAINNAME":"美濃","POINTNAME":"大母母山","LEVEL":"Level2","NUMBER":"1654","COUNTYNAME":"屏東縣","TOWNNAME":"三地鄉","TW97_X":"223373.589","TW97_Y":"2525235.463","HEIGHT":"2423.929","_id":111731230},"geometry":{"type":"Point","coordinates":[120.740590920287,22.8276937219659]}}
,
{"type":"Feature","properties":{"PAGE":"2045","MOUNTAINNAME":"霧社","POINTNAME":"守城大山","LEVEL":"Level1","NUMBER":"","COUNTYNAME":"南投縣","TOWNNAME":"仁愛鄉眉原村","TW97_X":"254298.146","TW97_Y":"2660305.547","HEIGHT":"2420.24","_id":111731231},"geometry":{"type":"Point","coordinates":[121.042261115202,24.0476090230527]}}
,
{"type":"Feature","properties":{"PAGE":"1134","MOUNTAINNAME":"玉山","POINTNAME":"廣東丸","LEVEL":"Level3","NUMBER":"7539","COUNTYNAME":"高雄市","TOWNNAME":"","TW97_X":"240971.827","TW97_Y":"2588499.242","HEIGHT":"2417.826","_id":111731232},"geometry":{"type":"Point","coordinates":[120.911669279989,23.3991882705318]}}
,
{"type":"Feature","properties":{"PAGE":"945","MOUNTAINNAME":"美奈田主山","POINTNAME":"遙拜山","LEVEL":"Level2","NUMBER":"1662","COUNTYNAME":"屏東縣","TOWNNAME":"","TW97_X":"234225.184","TW97_Y":"2529468.142","HEIGHT":"2415.009","_id":111731233},"geometry":{"type":"Point","coordinates":[120.846269749071,22.8660554580175]}}
,
{"type":"Feature","properties":{"PAGE":"2004","MOUNTAINNAME":"大禹嶺","POINTNAME":"天長山","LEVEL":"Level3","NUMBER":"6014","COUNTYNAME":"花蓮縣","TOWNNAME":"秀林鄉","TW97_X":"286709.016","TW97_Y":"2661041.119","HEIGHT":"2413.391","_id":111731234},"geometry":{"type":"Point","coordinates":[121.360953750122,24.0538311271225]}}
,
{"type":"Feature","properties":{"PAGE":"2408","MOUNTAINNAME":"新城","POINTNAME":"清水山","LEVEL":"Level1","NUMBER":"","COUNTYNAME":"花蓮縣","TOWNNAME":"秀林鄉","TW97_X":"315335.331","TW97_Y":"2681445.593","HEIGHT":"2408.031","_id":111731235},"geometry":{"type":"Point","coordinates":[121.643342321161,24.2371366607973]}}
,
{"type":"Feature","properties":{"PAGE":"2171","MOUNTAINNAME":"土場","POINTNAME":"留倉賀","LEVEL":"Level3","NUMBER":"6249","COUNTYNAME":"新竹縣","TOWNNAME":"尖石鄉","TW97_X":"282448.041","TW97_Y":"2714348.481","HEIGHT":"2407.875","_id":111731236},"geometry":{"type":"Point","coordinates":[121.320262250032,24.5352393902265]}}
,
{"type":"Feature","properties":{"PAGE":"937","MOUNTAINNAME":"美奈田主山","POINTNAME":"王霸邊浦","LEVEL":"Level3","NUMBER":"7153","COUNTYNAME":"臺東縣","TOWNNAME":"","TW97_X":"238989.018","TW97_Y":"2522805.105","HEIGHT":"2407.427","_id":111731237},"geometry":{"type":"Point","coordinates":[120.892741820219,22.8059204786509]}}
,
{"type":"Feature","properties":{"PAGE":"1840","MOUNTAINNAME":"關山","POINTNAME":"武武奴留","LEVEL":"Level3","NUMBER":"7226","COUNTYNAME":"臺東縣","TOWNNAME":"","TW97_X":"256373.813","TW97_Y":"2566472.88","HEIGHT":"2406.311","_id":111731238},"geometry":{"type":"Point","coordinates":[121.06226810993,23.200294882578]}}
,
{"type":"Feature","properties":{"PAGE":"1139","MOUNTAINNAME":"玉山","POINTNAME":"霞山","LEVEL":"Level2","NUMBER":"1688","COUNTYNAME":"嘉義縣","TOWNNAME":"","TW97_X":"230919.787","TW97_Y":"2591000.028","HEIGHT":"2400.166","_id":111731239},"geometry":{"type":"Point","coordinates":[120.813289769408,23.4216843203643]}}
,
{"type":"Feature","properties":{"PAGE":"1121","MOUNTAINNAME":"玉山","POINTNAME":"多尾蘭","LEVEL":"Level3","NUMBER":"7531","COUNTYNAME":"高雄市","TOWNNAME":"桃源鄉","TW97_X":"242660.131","TW97_Y":"2579908.764","HEIGHT":"2398.845","_id":111731240},"geometry":{"type":"Point","coordinates":[120.928229207975,23.3216222664105]}}
,
{"type":"Feature","properties":{"PAGE":"1136","MOUNTAINNAME":"玉山","POINTNAME":"雞子山","LEVEL":"Level3","NUMBER":"7543","COUNTYNAME":"高雄市","TOWNNAME":"吳鳳鄉","TW97_X":"228231.495","TW97_Y":"2588897.742","HEIGHT":"2398.153","_id":111731241},"geometry":{"type":"Point","coordinates":[120.787013892423,23.4026666606555]}}
,
{"type":"Feature","properties":{"PAGE":"2023","MOUNTAINNAME":"大禹嶺","POINTNAME":"空巴尾","LEVEL":"Level2","NUMBER":"1448","COUNTYNAME":"花蓮縣","TOWNNAME":"秀林鄉富世村","TW97_X":"289752.854","TW97_Y":"2674928.921","HEIGHT":"2396.784","_id":111731242},"geometry":{"type":"Point","coordinates":[121.391263808824,24.1791533442586]}}
,
{"type":"Feature","properties":{"PAGE":"1932","MOUNTAINNAME":"萬大","POINTNAME":"三來稜","LEVEL":"Level3","NUMBER":"5964","COUNTYNAME":"南投縣","TOWNNAME":"仁愛鄉法治村武界第七林班","TW97_X":"259864.221","TW97_Y":"2644513.88","HEIGHT":"2396.436","_id":111731243},"geometry":{"type":"Point","coordinates":[121.096882290058,23.9049923038485]}}
,
{"type":"Feature","properties":{"PAGE":"1135","MOUNTAINNAME":"玉山","POINTNAME":"","LEVEL":"Level3","NUMBER":"7537","COUNTYNAME":"高雄市","TOWNNAME":"吳鳳鄉","TW97_X":"226006.19","TW97_Y":"2588850.759","HEIGHT":"2391.575","_id":111731244},"geometry":{"type":"Point","coordinates":[120.765242079205,23.4022112099445]}}
,
{"type":"Feature","properties":{"PAGE":"1152","MOUNTAINNAME":"卑南主山","POINTNAME":"玉留山","LEVEL":"Level3","NUMBER":"7234","COUNTYNAME":"臺東縣","TOWNNAME":"","TW97_X":"249434.934","TW97_Y":"2544345.649","HEIGHT":"2390.349","_id":111731245},"geometry":{"type":"Point","coordinates":[120.994487821806,23.0004851393482]}}
,
{"type":"Feature","properties":{"PAGE":"2003","MOUNTAINNAME":"大禹嶺","POINTNAME":"榮山","LEVEL":"Level2","NUMBER":"1456","COUNTYNAME":"花蓮縣","TOWNNAME":"","TW97_X":"297752.318","TW97_Y":"2660974.257","HEIGHT":"2383.405","_id":111731246},"geometry":{"type":"Point","coordinates":[121.469536019522,24.0529328626435]}}
,
{"type":"Feature","properties":{"PAGE":"2414","MOUNTAINNAME":"和平","POINTNAME":"比林山","LEVEL":"Level3","NUMBER":"6371","COUNTYNAME":"花蓮縣","TOWNNAME":"秀林鄉","TW97_X":"303797.368","TW97_Y":"2686347.481","HEIGHT":"2380.713","_id":111731247},"geometry":{"type":"Point","coordinates":[121.529918220273,24.2818328862073]}}
,
{"type":"Feature","properties":{"PAGE":"931","MOUNTAINNAME":"美奈田主山","POINTNAME":"大浦山","LEVEL":"Level2","NUMBER":"1657","COUNTYNAME":"臺東縣","TOWNNAME":"","TW97_X":"239626.379","TW97_Y":"2519612.156","HEIGHT":"2377.657","_id":111731248},"geometry":{"type":"Point","coordinates":[120.898971602695,22.7770892413481]}}
,
{"type":"Feature","properties":{"PAGE":"1915","MOUNTAINNAME":"萬大","POINTNAME":"坡羅沙金山","LEVEL":"Level3","NUMBER":"內補318","COUNTYNAME":"南投縣","TOWNNAME":"信義鄉東埔林管處","TW97_X":"265744.314","TW97_Y":"2631725.882","HEIGHT":"2373.684","_id":111731249},"geometry":{"type":"Point","coordinates":[121.154497067621,23.7894733807768]}}
,
{"type":"Feature","properties":{"PAGE":"2428","MOUNTAINNAME":"和平","POINTNAME":"巴奈良山","LEVEL":"Level3","NUMBER":"6345","COUNTYNAME":"宜蘭縣","TOWNNAME":"","TW97_X":"301913.954","TW97_Y":"2696518.406","HEIGHT":"2369.299","_id":111731250},"geometry":{"type":"Point","coordinates":[121.5117353078,24.3737276527004]}}
,
{"type":"Feature","properties":{"PAGE":"1968","MOUNTAINNAME":"環山","POINTNAME":"馬武佐野郡","LEVEL":"Level3","NUMBER":"6320","COUNTYNAME":"臺中市","TOWNNAME":"","TW97_X":"281897.062","TW97_Y":"2696233.838","HEIGHT":"2368.265","_id":111731251},"geometry":{"type":"Point","coordinates":[121.314418003751,24.3716960396235]}}
,
{"type":"Feature","properties":{"PAGE":"2063","MOUNTAINNAME":"霧社","POINTNAME":"八仙山","LEVEL":"Level2","NUMBER":"1547","COUNTYNAME":"臺中市","TOWNNAME":"和平鄉博愛村","TW97_X":"250385.264","TW97_Y":"2672311.678","HEIGHT":"2365.501","_id":111731252},"geometry":{"type":"Point","coordinates":[121.003791262169,24.1560232888207]}}
,
{"type":"Feature","properties":{"PAGE":"956","MOUNTAINNAME":"美奈田主山","POINTNAME":"嘉代山","LEVEL":"Level3","NUMBER":"7162","COUNTYNAME":"臺東縣","TOWNNAME":"","TW97_X":"247837.806","TW97_Y":"2536436.827","HEIGHT":"2362.646","_id":111731253},"geometry":{"type":"Point","coordinates":[120.978919028753,22.9290612763419]}}
,
{"type":"Feature","properties":{"PAGE":"988","MOUNTAINNAME":"太麻里","POINTNAME":"茶埔岩","LEVEL":"Level3","NUMBER":"7106","COUNTYNAME":"屏東縣","TOWNNAME":"霧臺鄉好茶村","TW97_X":"227230.473","TW97_Y":"2507201.825","HEIGHT":"2359.858","_id":111731254},"geometry":{"type":"Point","coordinates":[120.778429264758,22.6648900329629]}}
,
{"type":"Feature","properties":{"PAGE":"2053","MOUNTAINNAME":"霧社","POINTNAME":"三角峰","LEVEL":"Level2","NUMBER":"1465","COUNTYNAME":"南投縣","TOWNNAME":"仁愛鄉","TW97_X":"268676.165","TW97_Y":"2666048.167","HEIGHT":"2357.748","_id":111731255},"geometry":{"type":"Point","coordinates":[121.183705128823,24.0993572268149]}}
,
{"type":"Feature","properties":{"PAGE":"2174","MOUNTAINNAME":"土場","POINTNAME":"島俱子","LEVEL":"Level3","NUMBER":"6291","COUNTYNAME":"新竹縣","TOWNNAME":"尖石鄉","TW97_X":"288677.683","TW97_Y":"2715085.265","HEIGHT":"2346.443","_id":111731256},"geometry":{"type":"Point","coordinates":[121.381767971498,24.5417485102591]}}
,
{"type":"Feature","properties":{"PAGE":"1826","MOUNTAINNAME":"關山","POINTNAME":"屯古巒巴","LEVEL":"Level3","NUMBER":"7209","COUNTYNAME":"臺東縣","TOWNNAME":"","TW97_X":"250208.061","TW97_Y":"2560100.606","HEIGHT":"2345.43","_id":111731257},"geometry":{"type":"Point","coordinates":[121.002031755818,23.1427623105554]}}
,
{"type":"Feature","properties":{"PAGE":"2041","MOUNTAINNAME":"霧社","POINTNAME":"再生山","LEVEL":"Level3","NUMBER":"5958","COUNTYNAME":"南投縣","TOWNNAME":"仁愛鄉二四林班埔里林管處","TW97_X":"271315.55","TW97_Y":"2656947.902","HEIGHT":"2339.152","_id":111731258},"geometry":{"type":"Point","coordinates":[121.209533441757,24.0171537296965]}}
,
{"type":"Feature","properties":{"PAGE":"2419","MOUNTAINNAME":"和平","POINTNAME":"波浪山","LEVEL":"Level3","NUMBER":"6346","COUNTYNAME":"花蓮縣","TOWNNAME":"","TW97_X":"301780.131","TW97_Y":"2689641.31","HEIGHT":"2335.366","_id":111731259},"geometry":{"type":"Point","coordinates":[121.510167402444,24.3116403038782]}}
,
{"type":"Feature","properties":{"PAGE":"2219","MOUNTAINNAME":"竹東","POINTNAME":"佐藤山","LEVEL":"Level3","NUMBER":"6280","COUNTYNAME":"新竹縣","TOWNNAME":"五峰鄉","TW97_X":"269199.213","TW97_Y":"2714752.681","HEIGHT":"2332.061","_id":111731260},"geometry":{"type":"Point","coordinates":[121.189502517335,24.5391098278212]}}
,
{"type":"Feature","properties":{"PAGE":"1138","MOUNTAINNAME":"玉山","POINTNAME":"九溪山","LEVEL":"Level3","NUMBER":"7519","COUNTYNAME":"高雄市","TOWNNAME":"","TW97_X":"236090.623","TW97_Y":"2589507.086","HEIGHT":"2329.247","_id":111731261},"geometry":{"type":"Point","coordinates":[120.863902862502,23.4082550379016]}}
,
{"type":"Feature","properties":{"PAGE":"2168","MOUNTAINNAME":"土場","POINTNAME":"眉有岩","LEVEL":"Level2","NUMBER":"1553","COUNTYNAME":"宜蘭縣","TOWNNAME":"大同鄉","TW97_X":"288196.588","TW97_Y":"2712123.994","HEIGHT":"2327.649","_id":111731262},"geometry":{"type":"Point","coordinates":[121.376939576058,24.5150239606694]}}
,
{"type":"Feature","properties":{"PAGE":"946","MOUNTAINNAME":"美奈田主山","POINTNAME":"歡喜山","LEVEL":"Level3","NUMBER":"7160","COUNTYNAME":"臺東縣","TOWNNAME":"卑南鄉","TW97_X":"231162.567","TW97_Y":"2529709.936","HEIGHT":"2326.53","_id":111731263},"geometry":{"type":"Point","coordinates":[120.816420814535,22.8682074184452]}}
,
{"type":"Feature","properties":{"PAGE":"1512","MOUNTAINNAME":"東勢","POINTNAME":"百志興保","LEVEL":"Level3","NUMBER":"6593","COUNTYNAME":"苗栗縣","TOWNNAME":"","TW97_X":"249841.447","TW97_Y":"2691569.763","HEIGHT":"2322.828","_id":111731264},"geometry":{"type":"Point","coordinates":[120.998437607728,24.3299095774908]}}
,
{"type":"Feature","properties":{"PAGE":"1985","MOUNTAINNAME":"環山","POINTNAME":"加羅山","LEVEL":"Level3","NUMBER":"6224","COUNTYNAME":"宜蘭縣","TOWNNAME":"大同鄉四季村","TW97_X":"297706.481","TW97_Y":"2708563.728","HEIGHT":"2320.36","_id":111731265},"geometry":{"type":"Point","coordinates":[121.470665178114,24.4826160052547]}}
,
{"type":"Feature","properties":{"PAGE":"1998","MOUNTAINNAME":"大禹嶺","POINTNAME":"七腳川山","LEVEL":"Level3","NUMBER":"5996","COUNTYNAME":"花蓮縣","TOWNNAME":"","TW97_X":"299394.842","TW97_Y":"2658596.331","HEIGHT":"2311.977","_id":111731266},"geometry":{"type":"Point","coordinates":[121.485605346889,24.0314117726148]}}
,
{"type":"Feature","properties":{"PAGE":"1575","MOUNTAINNAME":"國姓","POINTNAME":"稍來山","LEVEL":"Level2","NUMBER":"1543","COUNTYNAME":"臺中市","TOWNNAME":"和平鄉","TW97_X":"246270.91","TW97_Y":"2681542.364","HEIGHT":"2307.488","_id":111731267},"geometry":{"type":"Point","coordinates":[120.963279335804,24.2393656624161]}}
,
{"type":"Feature","properties":{"PAGE":"2071","MOUNTAINNAME":"霧社","POINTNAME":"馬崙山","LEVEL":"Level3","NUMBER":"6595","COUNTYNAME":"臺中市","TOWNNAME":"和平鄉","TW97_X":"254339.728","TW97_Y":"2677279.017","HEIGHT":"2305.38","_id":111731268},"geometry":{"type":"Point","coordinates":[121.042720825412,24.2008691209432]}}
,
{"type":"Feature","properties":{"PAGE":"958","MOUNTAINNAME":"美奈田主山","POINTNAME":"西亞欠山","LEVEL":"Level3","NUMBER":"7164","COUNTYNAME":"臺東縣","TOWNNAME":"","TW97_X":"244570.356","TW97_Y":"2537076.431","HEIGHT":"2304.546","_id":111731269},"geometry":{"type":"Point","coordinates":[120.947059788583,22.9348299731296]}}
,
{"type":"Feature","properties":{"PAGE":"939","MOUNTAINNAME":"美奈田主山","POINTNAME":"拜燦山","LEVEL":"Level3","NUMBER":"7161","COUNTYNAME":"臺東縣","TOWNNAME":"","TW97_X":"234954.582","TW97_Y":"2525264.025","HEIGHT":"2297.732","_id":111731270},"geometry":{"type":"Point","coordinates":[120.853418627155,22.8280954185405]}}
,
{"type":"Feature","properties":{"PAGE":"948","MOUNTAINNAME":"美奈田主山","POINTNAME":"烏山","LEVEL":"Level3","NUMBER":"7131","COUNTYNAME":"高雄市","TOWNNAME":"","TW97_X":"227341.603","TW97_Y":"2530550.925","HEIGHT":"2292.851","_id":111731271},"geometry":{"type":"Point","coordinates":[120.779171734021,22.8757548853452]}}
,
{"type":"Feature","properties":{"PAGE":"1317","MOUNTAINNAME":"阿里山","POINTNAME":"鹿屈山","LEVEL":"Level3","NUMBER":"4201","COUNTYNAME":"南投縣","TOWNNAME":"","TW97_X":"227719.783","TW97_Y":"2611073.124","HEIGHT":"2288.376","_id":111731272},"geometry":{"type":"Point","coordinates":[120.781677559554,23.6029048279104]}}
,
{"type":"Feature","properties":{"PAGE":"935","MOUNTAINNAME":"美奈田主山","POINTNAME":"麻留賀山","LEVEL":"Level3","NUMBER":"7128","COUNTYNAME":"屏東縣","TOWNNAME":"","TW97_X":"224550.808","TW97_Y":"2522515.63","HEIGHT":"2287.666","_id":111731273},"geometry":{"type":"Point","coordinates":[120.752104403701,22.8031496331188]}}
,
{"type":"Feature","properties":{"PAGE":"1311","MOUNTAINNAME":"阿里山","POINTNAME":"同富山","LEVEL":"Level3","NUMBER":"內補360","COUNTYNAME":"南投縣","TOWNNAME":"信義鄉東埔村","TW97_X":"238058","TW97_Y":"2603897.073","HEIGHT":"2285.29","_id":111731274},"geometry":{"type":"Point","coordinates":[120.883038260844,23.5382142570259]}}
,
{"type":"Feature","properties":{"PAGE":"1811","MOUNTAINNAME":"關山","POINTNAME":"關東松","LEVEL":"Level3","NUMBER":"7229","COUNTYNAME":"臺東縣","TOWNNAME":"","TW97_X":"253878.962","TW97_Y":"2549317.899","HEIGHT":"2278.34","_id":111731275},"geometry":{"type":"Point","coordinates":[121.037851524375,23.0453835010102]}}
,
{"type":"Feature","properties":{"PAGE":"2188","MOUNTAINNAME":"土場","POINTNAME":"虎禮山","LEVEL":"Level3","NUMBER":"6289","COUNTYNAME":"新竹縣","TOWNNAME":"玉峰鄉","TW97_X":"283260.925","TW97_Y":"2724050.834","HEIGHT":"2276.007","_id":111731276},"geometry":{"type":"Point","coordinates":[121.328513697834,24.6228218724513]}}
,
{"type":"Feature","properties":{"PAGE":"1113","MOUNTAINNAME":"玉山","POINTNAME":"飭山","LEVEL":"Level3","NUMBER":"7556","COUNTYNAME":"高雄市","TOWNNAME":"","TW97_X":"225528.477","TW97_Y":"2574533.197","HEIGHT":"2275.387","_id":111731277},"geometry":{"type":"Point","coordinates":[120.760799795408,23.2729131071215]}}
,
{"type":"Feature","properties":{"PAGE":"2445","MOUNTAINNAME":"和平","POINTNAME":"多門山","LEVEL":"Level3","NUMBER":"6329","COUNTYNAME":"宜蘭縣","TOWNNAME":"大同鄉","TW97_X":"301826.872","TW97_Y":"2708754.263","HEIGHT":"2273.224","_id":111731278},"geometry":{"type":"Point","coordinates":[121.511322087569,24.4842041549923]}}
,
{"type":"Feature","properties":{"PAGE":"2034","MOUNTAINNAME":"大禹嶺","POINTNAME":"椎巴宇山","LEVEL":"Level3","NUMBER":"6358","COUNTYNAME":"花蓮縣","TOWNNAME":"秀林鄉","TW97_X":"293482.44","TW97_Y":"2680938.222","HEIGHT":"2272.458","_id":111731279},"geometry":{"type":"Point","coordinates":[121.428152369647,24.2333130147813]}}
,
{"type":"Feature","properties":{"PAGE":"1882","MOUNTAINNAME":"池南","POINTNAME":"圓山","LEVEL":"Level3","NUMBER":"5998","COUNTYNAME":"花蓮縣","TOWNNAME":"","TW97_X":"291457.016","TW97_Y":"2646467.938","HEIGHT":"2269.989","_id":111731280},"geometry":{"type":"Point","coordinates":[121.40722514018,23.9221278387731]}}
,
{"type":"Feature","properties":{"PAGE":"2417","MOUNTAINNAME":"和平","POINTNAME":"騾馬望山","LEVEL":"Level3","NUMBER":"4322","COUNTYNAME":"花蓮縣","TOWNNAME":"","TW97_X":"314511.792","TW97_Y":"2687975.688","HEIGHT":"2269.333","_id":111731281},"geometry":{"type":"Point","coordinates":[121.63552663087,24.2961288173178]}}
,
{"type":"Feature","properties":{"PAGE":"2180","MOUNTAINNAME":"土場","POINTNAME":"養老","LEVEL":"Level3","NUMBER":"6276","COUNTYNAME":"新竹縣","TOWNNAME":"尖石鄉","TW97_X":"275934.264","TW97_Y":"2718146.665","HEIGHT":"2260.32","_id":111731282},"geometry":{"type":"Point","coordinates":[121.256041432029,24.5696552425582]}}
,
{"type":"Feature","properties":{"PAGE":"2028","MOUNTAINNAME":"大禹嶺","POINTNAME":"蕨山","LEVEL":"Level3","NUMBER":"6360","COUNTYNAME":"花蓮縣","TOWNNAME":"","TW97_X":"290978.227","TW97_Y":"2677422.951","HEIGHT":"2253.219","_id":111731283},"geometry":{"type":"Point","coordinates":[121.403395018762,24.2016407596848]}}
,
{"type":"Feature","properties":{"PAGE":"2410","MOUNTAINNAME":"新城","POINTNAME":"朝暾山","LEVEL":"Level3","NUMBER":"6364","COUNTYNAME":"花蓮縣","TOWNNAME":"秀林鄉","TW97_X":"303199.121","TW97_Y":"2682305.29","HEIGHT":"2249.306","_id":111731284},"geometry":{"type":"Point","coordinates":[121.523875920321,24.2453569561805]}}
,
{"type":"Feature","properties":{"PAGE":"2112","MOUNTAINNAME":"梨山","POINTNAME":"東洗水山","LEVEL":"Level3","NUMBER":"6614","COUNTYNAME":"苗栗縣","TOWNNAME":"泰安鄉","TW97_X":"251682.834","TW97_Y":"2704700.345","HEIGHT":"2247.537","_id":111731285},"geometry":{"type":"Point","coordinates":[121.016598240938,24.4484658262796]}}
,
{"type":"Feature","properties":{"PAGE":"1181","MOUNTAINNAME":"卑南主山","POINTNAME":"美夫馬","LEVEL":"Level3","NUMBER":"7224","COUNTYNAME":"臺東縣","TOWNNAME":"","TW97_X":"243293.562","TW97_Y":"2565569.917","HEIGHT":"2244.929","_id":111731286},"geometry":{"type":"Point","coordinates":[120.934486329345,23.1921393780441]}}
,
{"type":"Feature","properties":{"PAGE":"1141","MOUNTAINNAME":"玉山","POINTNAME":"巴伊車留","LEVEL":"Level3","NUMBER":"7546","COUNTYNAME":"高雄市","TOWNNAME":"","TW97_X":"238986.605","TW97_Y":"2593012.516","HEIGHT":"2241.225","_id":111731287},"geometry":{"type":"Point","coordinates":[120.892213078186,23.4399318905458]}}
,
{"type":"Feature","properties":{"PAGE":"2223","MOUNTAINNAME":"竹東","POINTNAME":"霞喀羅大山","LEVEL":"Level3","NUMBER":"6240","COUNTYNAME":"新竹縣","TOWNNAME":"五峰鄉","TW97_X":"268789.232","TW97_Y":"2717403.567","HEIGHT":"2233.687","_id":111731288},"geometry":{"type":"Point","coordinates":[121.185491083882,24.56304929683]}}
,
{"type":"Feature","properties":{"PAGE":"2078","MOUNTAINNAME":"梨山","POINTNAME":"捫岡","LEVEL":"Level3","NUMBER":"6307","COUNTYNAME":"臺中市","TOWNNAME":"和平鄉","TW97_X":"274181.666","TW97_Y":"2682742.594","HEIGHT":"2232.247","_id":111731289},"geometry":{"type":"Point","coordinates":[121.238138293622,24.2500209142561]}}
,
{"type":"Feature","properties":{"PAGE":"1849","MOUNTAINNAME":"玉里山","POINTNAME":"土沙多","LEVEL":"Level3","NUMBER":"內補352","COUNTYNAME":"花蓮縣","TOWNNAME":"卓溪鄉卓清村土沙多","TW97_X":"265732.69","TW97_Y":"2583247.371","HEIGHT":"2231.692","_id":111731290},"geometry":{"type":"Point","coordinates":[121.153872133312,23.3517117724213]}}
,
{"type":"Feature","properties":{"PAGE":"1000","MOUNTAINNAME":"太麻里","POINTNAME":"知本主山","LEVEL":"Level2","NUMBER":"1560","COUNTYNAME":"臺東縣","TOWNNAME":"","TW97_X":"236897.282","TW97_Y":"2514119.98","HEIGHT":"2229.955","_id":111731291},"geometry":{"type":"Point","coordinates":[120.87243910608,22.727470558986]}}
,
{"type":"Feature","properties":{"PAGE":"1980","MOUNTAINNAME":"環山","POINTNAME":"塚呂馬布山","LEVEL":"Level3","NUMBER":"6319","COUNTYNAME":"宜蘭縣","TOWNNAME":"大同鄉四季村","TW97_X":"293571.647","TW97_Y":"2703288.65","HEIGHT":"2224.806","_id":111731292},"geometry":{"type":"Point","coordinates":[121.429710845625,24.4351102432838]}}
,
{"type":"Feature","properties":{"PAGE":"2215","MOUNTAINNAME":"竹東","POINTNAME":"加里山","LEVEL":"Level1","NUMBER":"","COUNTYNAME":"苗栗縣","TOWNNAME":"南庄","TW97_X":"250429.886","TW97_Y":"2711799.196","HEIGHT":"2220.183","_id":111731293},"geometry":{"type":"Point","coordinates":[121.004242228673,24.5125620388594]}}
,
{"type":"Feature","properties":{"PAGE":"2049","MOUNTAINNAME":"霧社","POINTNAME":"立鷹","LEVEL":"Level3","NUMBER":"5938","COUNTYNAME":"南投縣","TOWNNAME":"仁愛鄉松崗村立鷹臺電公司瞭望","TW97_X":"266630.605","TW97_Y":"2664176.684","HEIGHT":"2219.104","_id":111731294},"geometry":{"type":"Point","coordinates":[121.163562920349,24.0824817098719]}}
,
{"type":"Feature","properties":{"PAGE":"2080","MOUNTAINNAME":"梨山","POINTNAME":"平石山","LEVEL":"Level3","NUMBER":"6600","COUNTYNAME":"臺中市","TOWNNAME":"和平鄉","TW97_X":"254138.997","TW97_Y":"2683013.896","HEIGHT":"2216.535","_id":111731295},"geometry":{"type":"Point","coordinates":[121.040761285598,24.2526514709202]}}
,
{"type":"Feature","properties":{"PAGE":"950","MOUNTAINNAME":"美奈田主山","POINTNAME":"平野山","LEVEL":"Level2","NUMBER":"1660","COUNTYNAME":"臺東縣","TOWNNAME":"","TW97_X":"239026.072","TW97_Y":"2532060.052","HEIGHT":"2215.618","_id":111731296},"geometry":{"type":"Point","coordinates":[120.893037414887,22.889500877473]}}
,
{"type":"Feature","properties":{"PAGE":"1858","MOUNTAINNAME":"玉里山","POINTNAME":"馬西桑","LEVEL":"Level3","NUMBER":"內補351-1","COUNTYNAME":"花蓮縣","TOWNNAME":"卓溪鄉卓溪村","TW97_X":"263732.75","TW97_Y":"2589101.072","HEIGHT":"2213.642","_id":111731297},"geometry":{"type":"Point","coordinates":[121.134365222747,23.4045901401139]}}
,
{"type":"Feature","properties":{"PAGE":"1170","MOUNTAINNAME":"卑南主山","POINTNAME":"周溪山","LEVEL":"Level3","NUMBER":"7222","COUNTYNAME":"臺東縣","TOWNNAME":"","TW97_X":"244577.823","TW97_Y":"2554993.193","HEIGHT":"2210.983","_id":111731298},"geometry":{"type":"Point","coordinates":[120.947069495393,23.0966306068277]}}
,
{"type":"Feature","properties":{"PAGE":"2106","MOUNTAINNAME":"梨山","POINTNAME":"東陽山","LEVEL":"Level3","NUMBER":"6624","COUNTYNAME":"苗栗縣","TOWNNAME":"泰安鄉","TW97_X":"259819.029","TW97_Y":"2700879.335","HEIGHT":"2209.789","_id":111731299},"geometry":{"type":"Point","coordinates":[121.096821310652,24.4139357398855]}}
,
{"type":"Feature","properties":{"PAGE":"2109","MOUNTAINNAME":"梨山","POINTNAME":"能甲山","LEVEL":"Level3","NUMBER":"6623","COUNTYNAME":"苗栗縣","TOWNNAME":"泰安鄉","TW97_X":"262704.459","TW97_Y":"2702753.053","HEIGHT":"2207.071","_id":111731300},"geometry":{"type":"Point","coordinates":[121.12528997823,24.4308327153833]}}
,
{"type":"Feature","properties":{"PAGE":"1856","MOUNTAINNAME":"玉里山","POINTNAME":"拉古拉山","LEVEL":"Level3","NUMBER":"內補353","COUNTYNAME":"花蓮縣","TOWNNAME":"卓溪鄉","TW97_X":"257584.956","TW97_Y":"2588201.692","HEIGHT":"2203.93","_id":111731301},"geometry":{"type":"Point","coordinates":[121.074208945404,23.3965086636169]}}
,
{"type":"Feature","properties":{"PAGE":"1002","MOUNTAINNAME":"太麻里","POINTNAME":"把里志山","LEVEL":"Level3","NUMBER":"7098","COUNTYNAME":"臺東縣","TOWNNAME":"","TW97_X":"239187.32","TW97_Y":"2515610.732","HEIGHT":"2201.902","_id":111731302},"geometry":{"type":"Point","coordinates":[120.89472332557,22.7409497624588]}}
,
{"type":"Feature","properties":{"PAGE":"1120","MOUNTAINNAME":"玉山","POINTNAME":"老濃山","LEVEL":"Level3","NUMBER":"7528","COUNTYNAME":"高雄市","TOWNNAME":"桃源鄉","TW97_X":"235490.855","TW97_Y":"2579080.448","HEIGHT":"2199.546","_id":111731303},"geometry":{"type":"Point","coordinates":[120.858134573846,23.3140945280082]}}
,
{"type":"Feature","properties":{"PAGE":"2118","MOUNTAINNAME":"梨山","POINTNAME":"班山","LEVEL":"Level3","NUMBER":"6618","COUNTYNAME":"苗栗縣","TOWNNAME":"五峰鄉","TW97_X":"264465.071","TW97_Y":"2707886.598","HEIGHT":"2182.981","_id":111731304},"geometry":{"type":"Point","coordinates":[121.142705098781,24.4771680192337]}}
,
{"type":"Feature","properties":{"PAGE":"1184","MOUNTAINNAME":"卑南主山","POINTNAME":"麻須保留","LEVEL":"Level3","NUMBER":"7214","COUNTYNAME":"臺東縣","TOWNNAME":"海端鄉摩天","TW97_X":"246917.631","TW97_Y":"2567555.599","HEIGHT":"2178.053","_id":111731305},"geometry":{"type":"Point","coordinates":[120.969885014215,23.2100817833824]}}
,
{"type":"Feature","properties":{"PAGE":"1503","MOUNTAINNAME":"東勢","POINTNAME":"烏石坑","LEVEL":"Level3","NUMBER":"6591","COUNTYNAME":"臺中市","TOWNNAME":"","TW97_X":"247160.104","TW97_Y":"2686264.412","HEIGHT":"2177.968","_id":111731306},"geometry":{"type":"Point","coordinates":[120.972025975147,24.2820040163156]}}
,
{"type":"Feature","properties":{"PAGE":"2227","MOUNTAINNAME":"竹東","POINTNAME":"霞山","LEVEL":"Level2","NUMBER":"1554","COUNTYNAME":"新竹縣","TOWNNAME":"五峰鄉","TW97_X":"271240.477","TW97_Y":"2721900.526","HEIGHT":"2166.981","_id":111731307},"geometry":{"type":"Point","coordinates":[121.209757762712,24.6036196813926]}}
,
{"type":"Feature","properties":{"PAGE":"1815","MOUNTAINNAME":"關山","POINTNAME":"樂樂山","LEVEL":"Level3","NUMBER":"7501","COUNTYNAME":"臺東縣","TOWNNAME":"關山鎮","TW97_X":"253852.952","TW97_Y":"2552755.193","HEIGHT":"2164.442","_id":111731308},"geometry":{"type":"Point","coordinates":[121.037606338292,23.0764245057565]}}
,
{"type":"Feature","properties":{"PAGE":"2116","MOUNTAINNAME":"梨山","POINTNAME":"北坑山","LEVEL":"Level3","NUMBER":"6616","COUNTYNAME":"苗栗縣","TOWNNAME":"泰安鄉","TW97_X":"253297.38","TW97_Y":"2706783.344","HEIGHT":"2162.839","_id":111731309},"geometry":{"type":"Point","coordinates":[121.032527766694,24.4672706430614]}}
,
{"type":"Feature","properties":{"PAGE":"2415","MOUNTAINNAME":"和平","POINTNAME":"文逮？山","LEVEL":"Level3","NUMBER":"1578","COUNTYNAME":"花蓮縣","TOWNNAME":"","TW97_X":"306630.605","TW97_Y":"2686385.915","HEIGHT":"2160.09","_id":111731310},"geometry":{"type":"Point","coordinates":[121.557826856302,24.2820800412831]}}
,
{"type":"Feature","properties":{"PAGE":"2191","MOUNTAINNAME":"土場","POINTNAME":"低陸山","LEVEL":"Level3","NUMBER":"6292","COUNTYNAME":"桃園市","TOWNNAME":"復興鄉","TW97_X":"286266.163","TW97_Y":"2725252.31","HEIGHT":"2160.022","_id":111731311},"geometry":{"type":"Point","coordinates":[121.358226512646,24.633601798936]}}
,
{"type":"Feature","properties":{"PAGE":"1877","MOUNTAINNAME":"池南","POINTNAME":"木瓜南山","LEVEL":"Level3","NUMBER":"6005","COUNTYNAME":"花蓮縣","TOWNNAME":"萬榮鄉池南村","TW97_X":"293969.415","TW97_Y":"2642683.09","HEIGHT":"2157.943","_id":111731312},"geometry":{"type":"Point","coordinates":[121.431789938952,23.8878855669]}}
,
{"type":"Feature","properties":{"PAGE":"1854","MOUNTAINNAME":"玉里山","POINTNAME":"玉里山","LEVEL":"Level1","NUMBER":"","COUNTYNAME":"花蓮縣","TOWNNAME":"卓溪鄉卓溪村","TW97_X":"274040.686","TW97_Y":"2586864.018","HEIGHT":"2156.937","_id":111731313},"geometry":{"type":"Point","coordinates":[121.235184877632,23.3842698957242]}}
,
{"type":"Feature","properties":{"PAGE":"1855","MOUNTAINNAME":"玉里山","POINTNAME":"阿不郎","LEVEL":"Level3","NUMBER":"內補351","COUNTYNAME":"花蓮縣","TOWNNAME":"","TW97_X":"268316.108","TW97_Y":"2587917.967","HEIGHT":"2151.953","_id":111731314},"geometry":{"type":"Point","coordinates":[121.179195604717,23.3938614729374]}}
,
{"type":"Feature","properties":{"PAGE":"1935","MOUNTAINNAME":"萬大","POINTNAME":"馬軍山","LEVEL":"Level3","NUMBER":"5954","COUNTYNAME":"南投縣","TOWNNAME":"仁愛鄉霧社林區管理處第18、19林","TW97_X":"272428.147","TW97_Y":"2647354.608","HEIGHT":"2150.052","_id":111731315},"geometry":{"type":"Point","coordinates":[121.22032294871,23.9305156371676]}}
,
{"type":"Feature","properties":{"PAGE":"1234","MOUNTAINNAME":"甲仙","POINTNAME":"可那部","LEVEL":"Level3","NUMBER":"7555","COUNTYNAME":"屏東縣","TOWNNAME":"","TW97_X":"223893.026","TW97_Y":"2569807.71","HEIGHT":"2150.008","_id":111731316},"geometry":{"type":"Point","coordinates":[120.744895164509,23.2302152360475]}}
,
{"type":"Feature","properties":{"PAGE":"1865","MOUNTAINNAME":"池南","POINTNAME":"向山","LEVEL":"Level3","NUMBER":"6000","COUNTYNAME":"花蓮縣","TOWNNAME":"萬榮鄉","TW97_X":"284651.944","TW97_Y":"2633097.416","HEIGHT":"2144.284","_id":111731317},"geometry":{"type":"Point","coordinates":[121.340065756528,23.801560611646]}}
,
{"type":"Feature","properties":{"PAGE":"1013","MOUNTAINNAME":"內埔","POINTNAME":"茶仁山","LEVEL":"Level3","NUMBER":"6641","COUNTYNAME":"屏東縣","TOWNNAME":"來義鄉","TW97_X":"223412.265","TW97_Y":"2492982.532","HEIGHT":"2139.025","_id":111731318},"geometry":{"type":"Point","coordinates":[120.74151437209,22.5364189793585]}}
,
{"type":"Feature","properties":{"PAGE":"2110","MOUNTAINNAME":"梨山","POINTNAME":"佳仁山","LEVEL":"Level3","NUMBER":"6615","COUNTYNAME":"苗栗縣","TOWNNAME":"","TW97_X":"257150.104","TW97_Y":"2704025.236","HEIGHT":"2138.94","_id":111731319},"geometry":{"type":"Point","coordinates":[121.07051997296,24.4423547261646]}}
,
{"type":"Feature","properties":{"PAGE":"933","MOUNTAINNAME":"美奈田主山","POINTNAME":"庶把掘","LEVEL":"Level3","NUMBER":"7151","COUNTYNAME":"臺東縣","TOWNNAME":"","TW97_X":"242150.997","TW97_Y":"2520984.597","HEIGHT":"2137.134","_id":111731320},"geometry":{"type":"Point","coordinates":[120.923551859214,22.7894973486953]}}
,
{"type":"Feature","properties":{"PAGE":"1312","MOUNTAINNAME":"阿里山","POINTNAME":"兜山","LEVEL":"Level3","NUMBER":"內補170","COUNTYNAME":"嘉義縣","TOWNNAME":"","TW97_X":"225074.978","TW97_Y":"2604374.484","HEIGHT":"2135.975","_id":111731321},"geometry":{"type":"Point","coordinates":[120.755873301577,23.542377748528]}}
,
{"type":"Feature","properties":{"PAGE":"2406","MOUNTAINNAME":"新城","POINTNAME":"砂山","LEVEL":"Level3","NUMBER":"6367","COUNTYNAME":"花蓮縣","TOWNNAME":"秀林鄉","TW97_X":"305849.043","TW97_Y":"2680462.263","HEIGHT":"2135.495","_id":111731322},"geometry":{"type":"Point","coordinates":[121.549898483281,24.2286244703828]}}
,
{"type":"Feature","properties":{"PAGE":"1314","MOUNTAINNAME":"阿里山","POINTNAME":"開高山","LEVEL":"Level3","NUMBER":"內補362","COUNTYNAME":"南投縣","TOWNNAME":"信義鄉東埔村","TW97_X":"242413.376","TW97_Y":"2608445.472","HEIGHT":"2133.657","_id":111731323},"geometry":{"type":"Point","coordinates":[120.92567233271,23.5793127665671]}}
,
{"type":"Feature","properties":{"PAGE":"2105","MOUNTAINNAME":"梨山","POINTNAME":"老松山","LEVEL":"Level3","NUMBER":"6625","COUNTYNAME":"苗栗縣","TOWNNAME":"泰安鄉梅園村","TW97_X":"254650.048","TW97_Y":"2699167.091","HEIGHT":"2133.196","_id":111731324},"geometry":{"type":"Point","coordinates":[121.045846602972,24.3984997992589]}}
,
{"type":"Feature","properties":{"PAGE":"2205","MOUNTAINNAME":"土場","POINTNAME":"塔曼山","LEVEL":"Level3","NUMBER":"6263","COUNTYNAME":"桃園市","TOWNNAME":"復興鄉","TW97_X":"294753.93","TW97_Y":"2733498.639","HEIGHT":"2130.494","_id":111731325},"geometry":{"type":"Point","coordinates":[121.44232688402,24.7078305291152]}}
,
{"type":"Feature","properties":{"PAGE":"2221","MOUNTAINNAME":"竹東","POINTNAME":"布奴加里山","LEVEL":"Level3","NUMBER":"6234","COUNTYNAME":"新竹縣","TOWNNAME":"五峰鄉","TW97_X":"273869.161","TW97_Y":"2716265.478","HEIGHT":"2124.702","_id":111731326},"geometry":{"type":"Point","coordinates":[121.23562166594,24.5527036405845]}}
,
{"type":"Feature","properties":{"PAGE":"1842","MOUNTAINNAME":"關山","POINTNAME":"崙天山","LEVEL":"Level2","NUMBER":"1670","COUNTYNAME":"臺東縣","TOWNNAME":"池上鄉龍泉村","TW97_X":"267143.387","TW97_Y":"2567775.477","HEIGHT":"2117.536","_id":111731327},"geometry":{"type":"Point","coordinates":[121.167494436693,23.2119810801692]}}
,
{"type":"Feature","properties":{"PAGE":"2052","MOUNTAINNAME":"霧社","POINTNAME":"武良洋","LEVEL":"Level3","NUMBER":"5940","COUNTYNAME":"南投縣","TOWNNAME":"仁愛鄉靜觀村第二九林班埔里林","TW97_X":"273636.109","TW97_Y":"2664427.849","HEIGHT":"2116.727","_id":111731328},